type;id;lat;lon;tags.amenity;tags.brand;tags.fuel:diesel;tags.operator;tags.wheelchair;tags.brand:wikidata;tags.name;tags.opening_hours;tags.brand:wikipedia;tags.compressed_air;tags.fuel:octane_95;tags.fuel:octane_98;tags.check_date;tags.created_by;tags.addr:city;tags.addr:housenumber;tags.addr:postcode;tags.addr:street;tags.branch;tags.payment:cash;tags.payment:credit_cards;tags.payment:debit_cards;tags.self_service;tags.website;tags.payment:cards;tags.fuel:octane_100;tags.phone;tags.alt_name;tags.fuel:biogas;tags.fuel:cng;tags.fuel:HGV_diesel;tags.shop;tags.addr:country;tags.payment:american_express;tags.payment:maestro;tags.payment:mastercard;tags.payment:notes;tags.payment:visa;tags.maxheight;tags.payment:coins;tags.payment:contactless;tags.payment:dkv;tags.payment:postfinance_card;tags.payment:reka;tags.payment:routex;tags.payment:v_pay;tags.payment:visa_electron;tags.fuel:1_25;tags.check_date:opening_hours;tags.fuel:1_50;tags.fuel:GTL_diesel;tags.fuel:biodiesel;tags.fuel:e10;tags.fuel:e85;tags.fuel:electricity;tags.fuel:lpg;tags.fuel:octane_91;tags.opening_hours:signed;tags.fixme;tags.fuel:GTL_diesel:name;tags.fuel:cng:maxheight;tags.fuel:octane_95:name;tags.fuel:octane_98:name;tags.fuel:others;tags.automated;tags.tenant;tags.fuel:adblue;tags.level;tags.capacity;tags.cash_withdrawal;tags.cash_withdrawal:fee;tags.cash_withdrawal:purchase_required;tags.cash_withdrawal:type;tags.source;tags.currency:CHF;tags.currency:EUR;tags.payment:avia_card;tags.mapillary;tags.addr:place;tags.access;tags.contact:phone;tags.name:de;tags.vending;tags.vending_machine;tags.wheelchair:description;tags.car_wash;tags.designation;tags.layer;tags.contact:addr;tags.survey:date;tags.fuel:gasoline;tags.ref;tags.check_date:compressed_air;tags.contact:email;tags.contact:fax;tags.contact:website;tags.seamark:small_craft_facility:category;tags.seamark:type;tags.payment:bebeco;tags.url;tags.old_name;tags.ele;tags.payment:twint;tags.toilets:wheelchair;tags.payment:diners_club_international;tags.is_in;tags.tourism;tags.payment:movieri;tags.note;tags.addr:housename;tags.internet_access;tags.name:fr;tags.fax;tags.ethanol;tags.toilets;tags.addr:state;tags.name:en;tags.payment:others;tags.hgv;tags.not:brand:wikidata;tags.payment:reka_card;tags.payment:uta;tags.workshop;tags.description;tags.delivery:covid19;tags.takeaway:covid19;tags.email;tags.fuel:98E5;tags.fuel:gasoil;tags.fuel:2-cycle_mix;tags.atm;tags.payment:account_cards;tags.car;tags.seamark:information;tags.payment:postcard;tags.payment:app;tags.fuel:V-Power;tags.fuel:super;tags.building;tags.source:addr;tags.payment:myone;tags.name:it;tags.repair;tags.sale;tags.payment:moveri_card;tags.payment:shell;tags.payment:vpay;tags.fuel:propane;tags.internet_access:fee;tags.compressed_air:fee;tags.compressed_air:valves;tags.service:bicycle:pump;tags.fuel:octane_80;tags.payment:diners_club;tags.fuel:octane_92;tags.addr:street:fr;tags.addr:full;tags.waterway;tags.payment:post.ch;tags.addr:suburb;tags.addr:street:de;tags.entrance;tags.fuel:adblue:canister;tags.fuel:100LL;tags.fuel:JetA1;tags.payment:avia;tags.payment:socar_card;tags.payment:tamoil_card;tags.fuel:LH2;tags.fuel:v-power_diesel;tags.fuel:benzin;tags.fee;tags.name:signed;tags.noname;tags.fuel;tags.fuel:air;tags.payment:cryptocurrencies;tags.payment:electronic_purses;tags.fuel:Shell_V-Power;tags.payment:post_finance;tags.covered;tags.payment:girocard;tags.self_checkout;tags.fuel:diesel_plus;tags.construction;tags.dog;tags.payment:hubrol_card;tags.payment:ec_cards;tags.fuel:lng;tags.fuel:petrol;tags.outdoor_seating;tags.operator:wikidata;tags.maxheight:signed;tags.currency:others;tags.payment:euroshell;tags.fuel:h35;tags.fuel:h70
node;1228781;46.8785984;7.5423261;fuel;BP;yes;BP;yes;;;;;;;;;;;;;;;;;;;;;;;;;;;;;;;;;;;;;;;;;;;;;;;;;;;;;;;;;;;;;;;;;;;;;;;;;;;;;;;;;;;;;;;;;;;;;;;;;;;;;;;;;;;;;;;;;;;;;;;;;;;;;;;;;;;;;;;;;;;;;;;;;;;;;;;;;;;;;;;;;;;;;;;;;;;;;;;;;;;;;;;;;;;;;;;;
node;5702030;46.6805465;7.8274119;fuel;Migrol;;;;Q1747771;Migrol;24/7;;;;;;;;;;;;;;;;;;;;;;;;;;;;;;;;;;;;;;;;;;;;;;;;;;;;;;;;;;;;;;;;;;;;;;;;;;;;;;;;;;;;;;;;;;;;;;;;;;;;;;;;;;;;;;;;;;;;;;;;;;;;;;;;;;;;;;;;;;;;;;;;;;;;;;;;;;;;;;;;;;;;;;;;;;;;;;;;;;;;;;;;;;;;;
node;5702071;46.6834149;7.8445587;fuel;Avia;yes;Avia;;Q300147;Avia;24/7;de:Avia International;yes;yes;yes;;;;;;;;;;;;;;;;;;;;;;;;;;;;;;;;;;;;;;;;;;;;;;;;;;;;;;;;;;;;;;;;;;;;;;;;;;;;;;;;;;;;;;;;;;;;;;;;;;;;;;;;;;;;;;;;;;;;;;;;;;;;;;;;;;;;;;;;;;;;;;;;;;;;;;;;;;;;;;;;;;;;;;;;;;;;;;;;;;;;;;;;;
node;8082505;46.6838171;7.6644266;fuel;;;;limited;;;;;;;;;;;;;;;;;;;;;;;;;;;;;;;;;;;;;;;;;;;;;;;;;;;;;;;;;;;;;;;;;;;;;;;;;;;;;;;;;;;;;;;;;;;;;;;;;;;;;;;;;;;;;;;;;;;;;;;;;;;;;;;;;;;;;;;;;;;;;;;;;;;;;;;;;;;;;;;;;;;;;;;;;;;;;;;;;;;;;;;;;;;;;;;;
node;17407058;47.0547266;7.6253785;fuel;;;Shell;;;Moveri Burgdorf;;;;;;2023-08-31;Potlatch 0.5d;;;;;;;;;;;;;;;;;;;;;;;;;;;;;;;;;;;;;;;;;;;;;;;;;;;;;;;;;;;;;;;;;;;;;;;;;;;;;;;;;;;;;;;;;;;;;;;;;;;;;;;;;;;;;;;;;;;;;;;;;;;;;;;;;;;;;;;;;;;;;;;;;;;;;;;;;;;;;;;;;;;;;;;;;;;;;;;;;;;;;;;
node;27069561;47.3963906;8.6233174;fuel;SOCAR;yes;SOCAR Energy Switzerland;yes;Q1622293;SOCAR Zur Schmiede;24/7;;yes;yes;yes;2024-09-22;;Dübendorf;44;8600;Usterstrasse;Dübendorf Zur Schmiede;yes;yes;yes;yes;https://www.socarenergy.ch/;;;;;;;;;;;;;;;;;;;;;;;;;;;;;;;;;;;;;;;;;;;;;;;;;;;;;;;;;;;;;;;;;;;;;;;;;;;;;;;;;;;;;;;;;;;;;;;;;;;;;;;;;;;;;;;;;;;;;;;;;;;;;;;;;;;;;;;;;;;;;;;;;;;;;;;;;;;;;;;;;;;;;;;;;;;;;
node;27125026;47.4010933;8.6199554;fuel;BP;yes;Tresch Automobile;;Q152057;BP Garage Tresch;;en:BP;;yes;;;;;;;;Dübendorf;;;;yes;;yes;;;;;;;;;;;;;;;;;;;;;;;;;;;;;;;;;;;;;;;;;;;;;;;;;;;;;;;;;;;;;;;;;;;;;;;;;;;;;;;;;;;;;;;;;;;;;;;;;;;;;;;;;;;;;;;;;;;;;;;;;;;;;;;;;;;;;;;;;;;;;;;;;;;;;;;;;;;;;;;;;;;;;;;;;;;;
node;29881492;47.686119;8.621418;fuel;Shell;yes;Shell (Switzerland);;Q110716465;Shell Rheinfall;;;yes;yes;;;;Neuhausen am Rheinfall;38;8212;Schaffhauserstrasse;Neuhausen Rheinfall;;;;;https://find.shell.com/ch/fuel/10023368-shell-rheinfall/de_CH;;yes;;;;;;;;;;;;;;;;;;;;;;;;;;;;;;;;;;;;;;;;;;;;;;;;;;;;;;;;;;;;;;;;;;;;;;;;;;;;;;;;;;;;;;;;;;;;;;;;;;;;;;;;;;;;;;;;;;;;;;;;;;;;;;;;;;;;;;;;;;;;;;;;;;;;;;;;;;;;;;;;;;;;;;;;;;;
node;29881496;47.6822764;8.6093701;fuel;OIL!;;;;;;;;;;;;;;;;;;;;;;;;;;;;;;;;;;;;;;;;;;;;;;;;;;;;;;;;;;;;;;;;;;;;;;;;;;;;;;;;;;;;;;;;;;;;;;;;;;;;;;;;;;;;;;;;;;;;;;;;;;;;;;;;;;;;;;;;;;;;;;;;;;;;;;;;;;;;;;;;;;;;;;;;;;;;;;;;;;;;;;;;;;;;;;;;;;;
node;29882004;47.6799675;8.6064702;fuel;Coop;;;;;;;;;;;;;;;;;;;;;;;;;;;;;;;;;;;;;;;;;;;;;;;;;;;;;;;;;;;;;;;;;;;;;;;;;;;;;;;;;;;;;;;;;;;;;;;;;;;;;;;;;;;;;;;;;;;;;;;;;;;;;;;;;;;;;;;;;;;;;;;;;;;;;;;;;;;;;;;;;;;;;;;;;;;;;;;;;;;;;;;;;;;;;;;;;;;
node;29885121;47.6773289;8.6005845;fuel;;;;;;Wegmüller;;;;;;;;;;;;;;;;;;;;;;;;;;;;;;;;;;;;;;;;;;;;;;;;;;;;;;;;;;;;;;;;;;;;;;;;;;;;;;;;;;;;;;;;;;;;;;;;;;;;;;;;;;;;;;;;;;;;;;;;;;;;;;;;;;;;;;;;;;;;;;;;;;;;;;;;;;;;;;;;;;;;;;;;;;;;;;;;;;;;;;;;;;;;;;
node;30011079;47.714297;8.5161525;fuel;;;;;;Bär - Benzin und Diesel;;;;;;;;;;;;;;;;;;;;;;;;;;;;;;;;;;;;;;;;;;;;;;;;;;;;;;;;;;;;;;;;;;;;;;;;;;;;;;;;;;;;;;;;;;;;;;;;;;;;;;;;;;;;;;;;;;;;;;;;;;;;;;;;;;;;;;;;;;;;;;;;;;;;;;;;;;;;;;;;;;;;;;;;;;;;;;;;;;;;;;;;;;;;;;
node;33127154;47.1377584;9.0509476;fuel;BP;;;;;;;;no;;;;;;;;;;;;;;;;;;;;;;;;;;;;;;;;;;;;;;;;;;;;;;;;;;;;;;;;;;;;;;;;;;;;;;;;;;;;;;;;;;;;;;;;;;;;;;;;;;;;;;;;;;;;;;;;;;;;;;;;;;;;;;;;;;;;;;;;;;;;;;;;;;;;;;;;;;;;;;;;;;;;;;;;;;;;;;;;;;;;;;;;;;;
node;33157581;47.1554377;9.038236;fuel;BP;;;;Q152057;BP;;en:BP;;;;;;;;;;;;;;;;;;;;;;;;;;;;;;;;;;;;;;;;;;;;;;;;;;;;;;;;;;;;;;;;;;;;;;;;;;;;;;;;;;;;;;;;;;;;;;;;;;;;;;;;;;;;;;;;;;;;;;;;;;;;;;;;;;;;;;;;;;;;;;;;;;;;;;;;;;;;;;;;;;;;;;;;;;;;;;;;;;;;;;;;;;;;
node;33593043;47.1327975;9.0875692;fuel;;;;;;Garage Jörg AG;;;;;;;;;;;;;;;;;;;;;;;;;;;;;;;;;;;;;;;;;;;;;;;;;;;;;;;;;;;;;;;;;;;;;;;;;;;;;;;;;;;;;;;;;;;;;;;;;;;;;;;;;;;;;;;;;;;;;;;;;;;;;;;;;;;;;;;;;;;;;;;;;;;;;;;;;;;;;;;;;;;;;;;;;;;;;;;;;;;;;;;;;;;;;;
node;34026947;47.1782564;9.0513173;fuel;BP;;;;Q152057;BP;;en:BP;;;;;;;;;;;;;;;;;;;;;;;;;;;;;;;;;;;;;;;;;;;;;;;;;;;;;;;;;;;;;;;;;;;;;;;;;;;;;;;;;;;;;;;;;;;;;;;;;;;;;;;;;;;;;;;;;;;;;;;;;;;;;;;;;;;;;;;;;;;;;;;;;;;;;;;;;;;;;;;;;;;;;;;;;;;;;;;;;;;;;;;;;;;;
node;34026948;47.1871045;9.0496605;fuel;Spurt;yes;;;;;;;;yes;yes;;;Schänis-Rufi;;8723;Gasterstrasse;;;;;yes;http://www.waldburger-oel.ch/;;;+41 71 274 30 83;;;;;;;;;;;;;;;;;;;;;;;;;;;;;;;;;;;;;;;;;;;;;;;;;;;;;;;;;;;;;;;;;;;;;;;;;;;;;;;;;;;;;;;;;;;;;;;;;;;;;;;;;;;;;;;;;;;;;;;;;;;;;;;;;;;;;;;;;;;;;;;;;;;;;;;;;;;;;;;;;;;;;;;;;;
node;34026949;47.2112768;9.0283638;fuel;;;;;;Agrola;;;;;;;;;;;;;;;;;;;;;;;;;;;;;;;;;;;;;;;;;;;;;;;;;;;;;;;;;;;;;;;;;;;;;;;;;;;;;;;;;;;;;;;;;;;;;;;;;;;;;;;;;;;;;;;;;;;;;;;;;;;;;;;;;;;;;;;;;;;;;;;;;;;;;;;;;;;;;;;;;;;;;;;;;;;;;;;;;;;;;;;;;;;;;;
node;34078845;47.4956958;8.7129812;fuel;Shell;yes;Migrol;;Q154950;Migrol Service Zürcherstrasse;;;yes;yes;;;;Winterthur;48;8406;Zürcherstrasse;Winterthur Zürcherstrasse;;;;;https://www.migrol.ch/de/;;yes;;Migrol Zürcherstrasse;yes;yes;;;;;;;;;;;;;;;;;;;;;;;;;;;;;;;;;;;;;;;;;;;;;;;;;;;;;;;;;;;;;;;;;;;;;;;;;;;;;;;;;;;;;;;;;;;;;;;;;;;;;;;;;;;;;;;;;;;;;;;;;;;;;;;;;;;;;;;;;;;;;;;;;;;;;;;;;;;;;;;;;;;;;;;
node;35684995;47.2254301;8.9761652;fuel;;yes;Agrola;no;;;24/7;;;yes;yes;;;;;;;;;;;yes;;;;;;;;yes;no;;;;;;;;;;;;;;;;;;;;;;;;;;;;;;;;;;;;;;;;;;;;;;;;;;;;;;;;;;;;;;;;;;;;;;;;;;;;;;;;;;;;;;;;;;;;;;;;;;;;;;;;;;;;;;;;;;;;;;;;;;;;;;;;;;;;;;;;;;;;;;;;;;;;;;;;;;;;;;;;;;;;;
node;36724756;47.2276132;8.9725233;fuel;;;BP;;;;;;;;;;;;;;;;;;;;;;;;;;;;;;;;;;;;;;;;;;;;;;;;;;;;;;;;;;;;;;;;;;;;;;;;;;;;;;;;;;;;;;;;;;;;;;;;;;;;;;;;;;;;;;;;;;;;;;;;;;;;;;;;;;;;;;;;;;;;;;;;;;;;;;;;;;;;;;;;;;;;;;;;;;;;;;;;;;;;;;;;;;;;;;;;;
node;47744371;47.3995257;8.4973287;fuel;Coop;;Coop Mineraloel;;;Coop Tankstelle Höngg;Mo-Su 06:00-23:00;;;;;2024-09-02;;Zürich;146;8049;Am Wasser;Zürich Höngg;;;;;;;;;;;;;convenience;CH;;;;;;;;;;;;;;;;;;;;;;;;;;;;;;;;;;;;;;;;;;;;;;;;;;;;;;;;;;;;;;;;;;;;;;;;;;;;;;;;;;;;;;;;;;;;;;;;;;;;;;;;;;;;;;;;;;;;;;;;;;;;;;;;;;;;;;;;;;;;;;;;;;;;;;;;;;;;;;;;;;;;
node;52741787;47.3815928;8.5095448;fuel;Shell;yes;Shell (Switzerland);yes;Q154950;Shell Hardau;;;;yes;;;;Zürich;73;8004;Bullingerstrasse;Zürich Hardau;;;;;https://find.shell.com/ch/fuel/10023346-shell-hardau/de_CH;;yes;;;;;;;CH;;;;;;;;;;;;;;;;;;;;;;;;;;;;;;;;;;;;;;;;;;;;;;;;;;;;;;;;;;;;;;;;;;;;;;;;;;;;;;;;;;;;;;;;;;;;;;;;;;;;;;;;;;;;;;;;;;;;;;;;;;;;;;;;;;;;;;;;;;;;;;;;;;;;;;;;;;;;;;;;;;;;
node;54754456;47.1211551;9.122469;fuel;Eni;yes;;;Q565594;Eni;;en:Eni;;yes;yes;;;;;;;;;;;yes;;;;;;;;;;;;;;;;;;;;;;;;;;;;;;;;;;;;;;;;;;;;;;;;;;;;;;;;;;;;;;;;;;;;;;;;;;;;;;;;;;;;;;;;;;;;;;;;;;;;;;;;;;;;;;;;;;;;;;;;;;;;;;;;;;;;;;;;;;;;;;;;;;;;;;;;;;;;;;;;;;;;;;;;;;;;;;
node;55275762;47.2148943;9.0214887;fuel;;;;;;;;;;;;;;;;;;;;;;;;;;;;;;;;;;;;;;;;;;;;;;;;;;;;;;;;;;;;;;;;;;;;;;;;;;;;;;;;;;;;;;;;;;;;;;;;;;;;;;;;;;;;;;;;;;;;;;;;;;;;;;;;;;;;;;;;;;;;;;;;;;;;;;;;;;;;;;;;;;;;;;;;;;;;;;;;;;;;;;;;;;;;;;;;;;;;
node;56237356;47.2203343;8.980851;fuel;;;Post;;;;24/7;;;;;;;Uznach;9;8730;Burgerrietstrasse;;;;;;;;;;;;;;;;;;;;;;;;;;;;;;;;;;;;;;;;;;;;;;;;;;;;;;;;;;;;;;;;;;;;;;;;;;;;;;;;;;;;;;;;;;;;;;;;;;;;;;;;;;;;;;;;;;;;;;;;;;;;;;;;;;;;;;;;;;;;;;;;;;;;;;;;;;;;;;;;;;;;;;;;;;;;;;;;;;;
node;59185470;47.2376219;8.7276971;fuel;Avia;;AVIA;yes;Q300147;AVIA;;de:Avia International;;;;;;Stäfa;109;8712;Seestrasse;;;;;;;;;;;;;;convenience;CH;;;;;;;;;;;;;;;;;;;;;;;;;;;;;;;;;;;;;;;;;;;;;;;;;;;;;;;;;;;;;;;;;;;;;;;;;;;;;;;;;;;;;;;;;;;;;;;;;;;;;;;;;;;;;;;;;;;;;;;;;;;;;;;;;;;;;;;;;;;;;;;;;;;;;;;;;;;;;;;;;;;;
node;73124669;47.3811098;8.4921479;fuel;Migrol;yes;Migrol;yes;Q1747771;Migrol Service Flurstrasse;PH,Mo-Su 06:00-23:00;;yes;yes;;2024-09-19;;Zürich;32;8047;Rautistrasse;Zürich Flurstrasse;;;;;https://www.migrol.ch/de/;;;;Migrol Flurstrasse;;;;;CH;yes;yes;yes;yes;yes;;;;;;;;;;;;;;;;;;;;;;;;;;;;;;;;;;;;;;;;;;;;;;;;;;;;;;;;;;;;;;;;;;;;;;;;;;;;;;;;;;;;;;;;;;;;;;;;;;;;;;;;;;;;;;;;;;;;;;;;;;;;;;;;;;;;;;;;;;;;;;;;;;;;;;;;;;;;;;;
node;81321511;47.5335372;9.0696973;fuel;;yes;;;;;24/7;;;yes;yes;;;;;;;;yes;;;yes;;;;;;;;;;;yes;yes;yes;;yes;3.8;no;yes;yes;yes;yes;yes;yes;yes;;;;;;;;;;;;;;;;;;;;;;;;;;;;;;;;;;;;;;;;;;;;;;;;;;;;;;;;;;;;;;;;;;;;;;;;;;;;;;;;;;;;;;;;;;;;;;;;;;;;;;;;;;;;;;;;;;;;;;;;;;;;;;;;;;;;;;;;;;;;;;;;;;;;;;
node;82462301;47.6556089;8.857671;fuel;Avia;yes;Avia;;Q300147;Keusch;24/7;;yes;yes;yes;;;;;;;;;;;yes;;;;;;;;;no;;;;;;;;;;;;;;;;no;;;;;;;;;;;;;;;;;;;;;;;;;;;;;;;;;;;;;;;;;;;;;;;;;;;;;;;;;;;;;;;;;;;;;;;;;;;;;;;;;;;;;;;;;;;;;;;;;;;;;;;;;;;;;;;;;;;;;;;;;;;;;;;;;;;;;;;;;;;;;;;;;;;;;
node;82462303;47.6577964;8.8533445;fuel;;yes;;;;Kofi's;;;no;yes;yes;;;;;;;;;;;;;;no;;;no;no;no;;;;;;;;;;;;;;;;;no;2023-07-02;no;no;no;no;no;no;no;no;no;;;;;;;;;;;;;;;;;;;;;;;;;;;;;;;;;;;;;;;;;;;;;;;;;;;;;;;;;;;;;;;;;;;;;;;;;;;;;;;;;;;;;;;;;;;;;;;;;;;;;;;;;;;;;;;;;;;;;;;;;;;;;;;;;;;;;;;;;;;
node;83423432;47.3374315;8.5302419;fuel;Shell;yes;;;Q110716465;Shell Wollishofen;"Mo-Fr 06:30-22:00; Sa-Su 08:00-22:00";;;yes;;;;Zürich;115;8038;Albisstrasse;Zürich Wollishofen;;;;;;;yes;;;;;;;CH;;;;;;;;;;;;;;;;;;;;;;;;;;;;;;;;;;;;;;;;;;;;;;;;;;;;;;;;;;;;;;;;;;;;;;;;;;;;;;;;;;;;;;;;;;;;;;;;;;;;;;;;;;;;;;;;;;;;;;;;;;;;;;;;;;;;;;;;;;;;;;;;;;;;;;;;;;;;;;;;;;;;
node;83424882;47.3398175;8.5298146;fuel;Avia;;Avia Osterwalder Zürich;;Q300147;Avia Service Wollishofen;24/7;de:Avia International;yes;;;2024-07-19;;;;;;Zürich Wollishofen;;;;;;;;;;;;;;;;;;;;;;;;;;;;;;;;;;;;;;;;;;;;;;;;;;;;;;;;;;;;;;;;;;;;;;;;;;;;;;;;;;;;;;;;;;;;;;;;;;;;;;;;;;;;;;;;;;;;;;;;;;;;;;;;;;;;;;;;;;;;;;;;;;;;;;;;;;;;;;;;;;;;;;;;;;;;;;;;;;
node;84513888;47.3236425;8.5187472;fuel;Eni;yes;;;Q565594;Eni Sihltalstrasse;"Mo-Fr 06:00-22:00; Sa 06:30-22:00; Su,PH 07:00-22:00";;;yes;;2023-09-23;;;;;;Adliswil Sihltalstrasse;;;;;;;;;;;;;yes;;;;;;;;;;;;;;;;;;;;;;;;;;;;;;;;;;;;;;;;;;;;;;;;;;;;;;;;;;;;;;;;;;;;;;;;;;;;;;;;;;;;;;;;;;;;;;;;;;;;;;;;;;;;;;;;;;;;;;;;;;;;;;;;;;;;;;;;;;;;;;;;;;;;;;;;;;;;;;;;;;;;;
node;86035999;47.0242031;8.2963023;fuel;;yes;Agip;;;Agip;;;;yes;yes;;;;;;;;;;;yes;;;;;;yes;;;convenience;;;;;;;;;;;;;;;;;;;;;;;;;;;Please check name and brand. Agip becomes Eni. See http://lists.openstreetmap.ch/pipermail/talk-ch/2019-January/009849.html for (german) discussion.;;;;;;;;;;;;;;;;;;;;;;;;;;;;;;;;;;;;;;;;;;;;;;;;;;;;;;;;;;;;;;;;;;;;;;;;;;;;;;;;;;;;;;;;;;;;;;;;;;;;;;;;;;;;;;;;;;;;;;;;;;;;;;;;;;;;;;;;;;
node;89266715;47.1832564;7.9810905;fuel;Agrola;;Landi Oberwiggertal;yes;Q397351;Agrola;;de:Agrola;;;;;;;;;;;;;;;;;;;;;;;;;;;;;;;;;;;;;;;;;;;;;;;;;;;;;;;;;;;;;;;;;;;;;;;;;;;;;;;;;;;;;;;;;;;;;;;;;;;;;;;;;;;;;;;;;;;;;;;;;;;;;;;;;;;;;;;;;;;;;;;;;;;;;;;;;;;;;;;;;;;;;;;;;;;;;;;;;;;;;;;;;;;;
node;94628702;47.0265599;8.2991398;fuel;Shell;;Shell (Switzerland);;Q110716465;Shell Kriens;;;yes;;;;;Kriens;10;6010;Nidfeldstrasse;Kriens;;;;;https://find.shell.com/ch/fuel/10023403-shell-kriens/de_CH;;;;;;;;;;;;;;;;;;;;;;;;;;;;;;;;;;;;;;;;;;;;;;;;;;;;;;;;;;;;;;;;;;;;;;;;;;;;;;;;;;;;;;;;;;;;;;;;;;;;;;;;;;;;;;;;;;;;;;;;;;;;;;;;;;;;;;;;;;;;;;;;;;;;;;;;;;;;;;;;;;;;;;;;;;;;;
node;95582040;47.0495135;9.0600281;fuel;Avia;;;;;Avia;;;;;;;;;;;;;;;;;;;;;;;;;;;;;;;;;;;;;;;;;;;;;;;;;;;;;;;;;;;;;;;;;;;;;;;;;;;;;;;;;;;;;;;;;;;;;;;;;;;;;;;;;;;;;;;;;;;;;;;;;;;;;;;;;;;;;;;;;;;;;;;;;;;;;;;;;;;;;;;;;;;;;;;;;;;;;;;;;;;;;;;;;;;;;;
node;98838885;47.0678093;9.0577963;fuel;Coop;;Coop Mineraloel;;;Coop Tankstelle;PH,Mo-Su 05:30-23:00;;yes;;;;;;;;;Netstal;;;;;;;;;Coop Tankstelle Netstal;;;;;;;;;;;;;;;;;;;;;;;;;;;;;;;;;;;;;;;;;;;;;;;;;;;;;;;;;;;;;;;;;;;;;;;;;;;;;;;;;;;;;;;;;;;;;;;;;;;;;;;;;;;;;;;;;;;;;;;;;;;;;;;;;;;;;;;;;;;;;;;;;;;;;;;;;;;;;;;;;;;;;;;;;
node;98838886;47.0725304;9.0560821;fuel;SOCAR;;SOCAR Energy Switzerland;;Q1622293;SOCAR Glarnerland;;;;;;;;Netstal;4;8754;Landstrasse;Netstal Glarnerland;;;;;https://www.socarenergy.ch/;;;;;;;;;;;;;;;;;;;;;;;;;;;;;;;;;;;;;;;;;;;;;;;;;;;;;;;;;;;;;;;;;;;;;;;;;;;;;;;;;;;;;;;;;;;;;;;;;;;;;;;;;;;;;;;;;;;;;;;;;;;;;;;;;;;;;;;;;;;;;;;;;;;;;;;;;;;;;;;;;;;;;;;;;;;;;
node;98838887;47.0950062;9.0680391;fuel;;;;;;Oil;;;;;;;;;;;;;;;;;;;;;;;;;;;;;;;;;;;;;;;;;;;;;;;;;;;;;;;;;;;;;;;;;;;;;;;;;;;;;;;;;;;;;;;;;;;;;;;;;;;;;;;;;;;;;;;;;;;;;;;;;;;;;;;;;;;;;;;;;;;;;;;;;;;;;;;;;;;;;;;;;;;;;;;;;;;;;;;;;;;;;;;;;;;;;;
node;101392168;47.3890134;8.695437;fuel;;;;;;AVIA;;;;;;;;Volketswil;4;8604;Pfäffikerstrasse;;;;;;;;;;;;;;;CH;;;;;;;;;;;;;;;;;;;;;;;;;;;;;;;;;;;;;;;;;;;;;;;;;;;;;;;;;;;;;;;;;;;;;;;;;;;;;;;;;;;;;;;;;;;;;;;;;;;;;;;;;;;;;;;;;;;;;;;;;;;;;;;;;;;;;;;;;;;;;;;;;;;;;;;;;;;;;;;;;;;;
node;102726613;47.2169721;8.5763211;fuel;Migrol;;Migrol;;Q1747771;Migrol Service Sihlbrugg;;de:Migrol;yes;;;;;Sihlbrugg;2;6340;Zugerstrasse;Sihlbrugg;;;;;https://www.migrol.ch/de/;;;;Migrol Sihlbrugg;;;;;CH;;;;;;;;;;;;;;;;;;;;;;;;;;;;;;;;;;;;;;;;;;;;;;;;;;;;;;;;;;;;;;;;;;;;;;;;;;;;;;;;;;;;;;;;;;;;;;;;;;;;;;;;;;;;;;;;;;;;;;;;;;;;;;;;;;;;;;;;;;;;;;;;;;;;;;;;;;;;;;;;;;;;
node;102728438;47.1994085;8.5736624;fuel;;;;no;;;;;;;;;Potlatch 0.4c;;;;;;;;;;;;;;;;;;;;;;;;;;;;;;;;;;;;;;;;;;;;;;;;;;;;;;;;;;;;;;;;;;;;;;;;;;;;;;;;;;;;;;;;;;;;;;;;;;;;;;;;;;;;;;;;;;;;;;;;;;;;;;;;;;;;;;;;;;;;;;;;;;;;;;;;;;;;;;;;;;;;;;;;;;;;;;;;;;;;;;;
node;103096904;47.3459074;8.534658;fuel;Avia;yes;A.H. Meyer & Cie;;Q300147;Avia Wollishofen Franz;;;;yes;yes;;;;;;;Zürich Wollishofen Franzareal;;;;;;;;;;;;;convenience;;;;;;;;;;;;;;;;;;;;;;;;;;;;;;;;;;;;;;;;;;;;;;;;;;;;;;;;;;;;;;;;;;;;;;;;;;;;;;;;;;;;;;;;;;;;;;;;;;;;;;;;;;;;;;;;;;;;;;;;;;;;;;;;;;;;;;;;;;;;;;;;;;;;;;;;;;;;;;;;;;;;;
node;103102957;47.3485725;8.5340966;fuel;BP;yes;;;Q152057;BP Service Wollishofen;PH,Mo-Su 00:00-24:00;;yes;yes;yes;;;Zürich;320;8038;Mythenquai;Zürich Wollishofen;;;;;;;;;;;;;;CH;;;;;;;;;;;;;;;;;;;;;;;;;;;;;;;;;;;;;;;;;;;;;;;;;;;;;;;;;;;;;;;;;;;;;;;;;;;;;;;;;;;;;;;;;;;;;;;;;;;;;;;;;;;;;;;;;;;;;;;;;;;;;;;;;;;;;;;;;;;;;;;;;;;;;;;;;;;;;;;;;;;;
node;110964235;47.5278765;7.7003458;fuel;BP;yes;;;Q152057;BP;24/7;en:BP;;yes;yes;;;;;;;;;;;;;;;;;;yes;yes;;;;;;;;;;;;;;;;;;;;yes;;;;;;;;;Ultimate Diesel;2.8;Bleifrei 95;Ultimate Bleifrei 98;no;;;;;;;;;;;;;;;;;;;;;;;;;;;;;;;;;;;;;;;;;;;;;;;;;;;;;;;;;;;;;;;;;;;;;;;;;;;;;;;;;;;;;;;;;;;;;;;;;;;;;;;;;;;;;;;;;;;;;;;;;;;;;;;;;;;;;
node;111247327;47.5080581;8.5437196;fuel;Migrol;yes;Migrol;;Q1747771;Migrol Tankstelle AMAG Bachenbülach;24/7;de:Migrol;;yes;yes;;;Bachenbülach;29;8184;Bächliwis;Bachenbülach AMAG;;;;yes;https://www.migrol.ch/de/;;;;Migrol AMAG Bachenbülach;;;;no;;;;;;;;;;;;;;;;;;;;;;;;;;;;;;;;;yes;AMAG Bachenbülach;;;;;;;;;;;;;;;;;;;;;;;;;;;;;;;;;;;;;;;;;;;;;;;;;;;;;;;;;;;;;;;;;;;;;;;;;;;;;;;;;;;;;;;;;;;;;;;;;;;;;;;;;;;;;;;;;;;;;;;;;;;;;;;;;;;
node;125683037;47.5250153;7.6900191;fuel;BP;;BP;;Q152057;BP;;en:BP;;;;;;;;;;;;;;;;;;;;;;;;;;;;;;;;;;;;;;;;;;;;;;;;;;;;;;;;;;;;;;;;;;;;;;;;;;;;;;;;;;;;;;;;;;;;;;;;;;;;;;;;;;;;;;;;;;;;;;;;;;;;;;;;;;;;;;;;;;;;;;;;;;;;;;;;;;;;;;;;;;;;;;;;;;;;;;;;;;;;;;;;;;;;
node;130216563;47.4804183;8.2358504;fuel;;;Avia;;;AVIA;;;;;;;;;;;;;;;;;;;;;;;;;;;;;;;;;;;;;;;;;;;;;;;;;;;;;;;;;;;;;;;;;;;;;;;;;;;;;;;;;;;;;;;;;;;;;;;;;;;;;;;;;;;;;;;;;;;;;;;;;;;;;;;;;;;;;;;;;;;;;;;;;;;;;;;;;;;;;;;;;;;;;;;;;;;;;;;;;;;;;;;;;;;;;;
node;130216565;47.4811412;8.2391514;fuel;;;Shell;;;Shell;;;;;;;;;;;;;;;;;;;;;;;;;;;;;;;;;;;;;;;;;;;;;;;;;;;;;;;;;;;;;;;;;;;;;;;;;;;;;;;;;;;;;;;;;;;;;;;;;;;;;;;;;;;;;;;;;;;;;;;;;;;;;;;;;;;;;;;;;;;;;;;;;;;;;;;;;;;;;;;;;;;;;;;;;;;;;;;;;;;;;;;;;;;;;;
node;130216566;47.4842929;8.242173;fuel;;;BP;;;BP;;;;;;;;;;;;;;;;;;;;;;;;;;;;;;;;;;;;;;;;;;;;;;;;;;;;;;;;;;;;;;;;;;;;;;;;;;;;;;;;;;;;;;;;;;;;;;;;;;;;;;;;;;;;;;;;;;;;;;;;;;;;;;;;;;;;;;;;;;;;;;;;;;;;;;;;;;;;;;;;;;;;;;;;;;;;;;;;;;;;;;;;;;;;;;
node;135633811;47.3980896;8.5399105;fuel;Migrol;yes;Migrol;no;Q1747771;Migrol Tankstelle Milchbuck;24/7;de:Migrol;;yes;yes;;;Zürich;18;8057;Wehntalerstrasse;Zürich Milchbuck;;;;yes;https://www.migrol.ch/de/;;;;Migrol Milchbuck;;;;no;CH;yes;yes;yes;yes;yes;;;;;;;;;;;;;;;;;;;;;;;;;;;yes;;;;;;;;;;;;;;;;;;;;;;;;;;;;;;;;;;;;;;;;;;;;;;;;;;;;;;;;;;;;;;;;;;;;;;;;;;;;;;;;;;;;;;;;;;;;;;;;;;;;;;;;;;;;;;;;;;;;;;;;;;;;;;;;;;;;
node;148213917;47.0067564;7.1099653;fuel;Avia;;Avia;;Q300147;Avia;;;;;;;;;;;;;;;;;;;;;;;;;;;;;;;;;;;;;;;;;;;;;;;;;;;;;;;;;;;;;;;;;;;;;;;;;;;;;;;;;;;;;;;;;;;;;;;;;;;;;;;;;;;;;;;;;;;;;;;;;;;;;;;;;;;;;;;;;;;;;;;;;;;;;;;;;;;;;;;;;;;;;;;;;;;;;;;;;;;;;;;;;;;;;;
node;148466650;47.4387423;8.3478347;fuel;Shell;yes;Shell (Switzerland);;Q154950;Shell Würenlos-Wald;24/7;;yes;yes;;;;Würenlos;;5436;;A1 Würenlos-Wald;;;;;https://find.shell.com/ch/fuel/10023396-shell-wuerenlos-wald/de_CH;;yes;;;;;;;;;;;;;;;;;;;;;;;;;;;;;;;;;;;;;;;;;yes;0;;;;;;;;;;;;;;;;;;;;;;;;;;;;;;;;;;;;;;;;;;;;;;;;;;;;;;;;;;;;;;;;;;;;;;;;;;;;;;;;;;;;;;;;;;;;;;;;;;;;;;;;;;;;;;;;;;;;;;;;;;;;;;;;;
node;148466654;47.4383077;8.3470877;fuel;Shell;yes;Shell (Switzerland);;Q154950;Shell Würenlos-Limmat;24/7;;yes;yes;;;;Würenlos;;5436;;A1 Würenlos-Limmat;;;;;https://find.shell.com/ch/fuel/10023369-shell-wuerenlos-limmat/de_CH;;yes;;;;;;;;;;;;;;;;;;;;;;;;;;;;;;;;;;;;;;;;;yes;0;;;;;;;;;;;;;;;;;;;;;;;;;;;;;;;;;;;;;;;;;;;;;;;;;;;;;;;;;;;;;;;;;;;;;;;;;;;;;;;;;;;;;;;;;;;;;;;;;;;;;;;;;;;;;;;;;;;;;;;;;;;;;;;;;
node;153289980;47.5389027;7.7343968;fuel;Coop;;Coop Mineraloel;yes;;Coop Tankstelle;;;;;;;;;;;;Kaiseraugst;;;;;;;;;Coop Tankstelle Kaiseraugst;;;;;;;;;;;;;;;;;;;;;;;;;;;;;;;;;;;;;;;;;;;;;;;;;;;;;;;;;;;;;;;;;;;;;;;;;;;;;;;;;;;;;;;;;;;;;;;;;;;;;;;;;;;;;;;;;;;;;;;;;;;;;;;;;;;;;;;;;;;;;;;;;;;;;;;;;;;;;;;;;;;;;;;;;
node;171100087;47.2028273;9.0072882;fuel;Opel;yes;;;;Kessler Garage;;;;yes;yes;;;;;;;;;;;;;;;;;;;;;;;;;;;;;;;;;;;;;;;;;;;;;;;;;;;;;;;yes;;;;;;;;;;;;;;;;;;;;;;;;;;;;;;;;;;;;;;;;;;;;;;;;;;;;;;;;;;;;;;;;;;;;;;;;;;;;;;;;;;;;;;;;;;;;;;;;;;;;;;;;;;;;;;;;;;;;;;;;;;;;;;;;;;
node;179047160;47.2327033;8.6143556;fuel;Independent;yes;Tankstelle Svabic;limited;;Tankstelle Svabic;24/7;;;yes;;;;Horgen;251;8810;Zugerstrasse;Horgen;;;;yes;https://www.svabic.ch/;;;;Tankstelle Svabic Horgen;;;;;;;;;;;;;;;;;;;;;;;;;;;;;;;;;;;;;yes;;;;;;;;;;;;;;;;;;;;;;;;;;;;;;;;;;;;;;;;;;;;;;;;;;;;;;;;;;;;;;;;;;;;;;;;;;;;;;;;;;;;;;;;;;;;;;;;;;;;;;;;;;;;;;;;;;;;;;;;;;;;;;;;;;;;
node;182812681;47.0111586;9.5123249;fuel;BP;;;yes;;;;;;;;2023-07-13;;;;;;;;;;;;;;+41 81 302 64 47;;;;;;;;;;;;;;;;;;;;;;;;;;;;;;;;;;;;;;;;;;;;;;;;;;;;;;;;;;;;;;;;;;;;;;;;;;;;;;;;;;;;;;;;;;;;;;;;;;;;;;;;;;;;;;;;;;;;;;;;;;;;;;;;;;;;;;;;;;;;;;;;;;;;;;;;;;;;;;;;;;;;;;;;;;
node;190344999;47.3795583;9.5445168;fuel;BP;yes;BP;;Q152057;Schöntalgarage;24/7;;yes;yes;yes;;;Altstätten SG;24;9450;Rorschacherstrasse;;;;;yes;;yes;;;;;;;;;;;;yes;;;;;;;;;;;;;;;;;;;;;;;;;;;;;;;;;;;;;;;;;;;;;;;;;;;;;;;;;;;;;;;;;;;;;;;;;;;;;;;;;;;;;;;;;;;;;;;;;;;;;;;;;;;;;;;;;;;;;;;;;;;;;;;;;;;;;;;;;;;;;;;;;;;;;;;;;;;;;;;;
node;194647104;47.4149012;9.6323521;fuel;;yes;Coop;;;Coop pronto, Heerbrugg;;;no;yes;yes;;;;;;;;;;;yes;;;;;;;;;;;;;;;;;;;;;;;;;;;;;;;;;;;;;;;;;;;;;;;;;;;;;;;;;;;;;;;;;;;;;;;;;;;;;;;;;;;;;;;;;;;;;;;;;;;;;;;;;;;;;;;;;;;;;;;;;;;;;;;;;;;;;;;;;;;;;;;;;;;;;;;;;;;;;;;;;;;;;;;;;;;;;;
node;201387216;47.4352023;9.1387028;fuel;Coop;yes;Coop Mineraloel;;;Coop Tankstelle;;;;yes;yes;;;;;;;Uzwil;;;;;;;;;Coop Tankstelle Uzwil;;;;;;;;;;;;;;;;;;;;;;;;;;;;;;;;;;;;;;;;;4;postfinance_card;no;no;checkout;;;;;;;;;;;;;;;;;;;;;;;;;;;;;;;;;;;;;;;;;;;;;;;;;;;;;;;;;;;;;;;;;;;;;;;;;;;;;;;;;;;;;;;;;;;;;;;;;;;;;;;;;;;;;;;;;;;;;;;;;;;;
node;206380323;47.0438236;8.364317;fuel;;;;;;;;;;;;;;;;;;;;;;;;;;;;;;;;;;;;;;;;;;;;;;;;;;;;;;;;;;;;;;;;;;;;;;;;;;;;;;;;;;;;;;;;;;;;;;;;;;;;;;;;;;;;;;;;;;;;;;;;;;;;;;;;;;;;;;;;;;;;;;;;;;;;;;;;;;;;;;;;;;;;;;;;;;;;;;;;;;;;;;;;;;;;;;;;;;;;
node;207089654;47.2140371;7.7435;fuel;;;;;;;24/7;;;yes;;;;;;;;;;;;;;;;;;;;;;;;;;;;;;;;;;;;;;;;;;;;;;;;;;;;;;;;;;;;;;;knowledge;;;;;;;;;;;;;;;;;;;;;;;;;;;;;;;;;;;;;;;;;;;;;;;;;;;;;;;;;;;;;;;;;;;;;;;;;;;;;;;;;;;;;;;;;;;;;;;;;;;;;;;;;;;;;;;;;;;;;;;;;;;
node;208814607;47.1958318;7.6992632;fuel;;yes;;;;Landi;;;;yes;yes;;;;;;;;;;;;;;;;;;yes;;;;;;;;;;;;;;;;;;;;;;;;;;;;;;;;;;;;;yes;;;;;;;;;;;;;;;;;;;;;;;;;;;;;;;;;;;;;;;;;;;;;;;;;;;;;;;;;;;;;;;;;;;;;;;;;;;;;;;;;;;;;;;;;;;;;;;;;;;;;;;;;;;;;;;;;;;;;;;;;;;;;;;;;;
node;213320801;47.2291296;9.0232582;fuel;Shell;;;no;;Shell;;;;;;;;;;;;;;;;;;;;;;;;;;;;;;;;;;;;;;;;;;;;;;;;;;;;;;;;;;;;;;;;;;;;;;;;;;;;;;;;;;;;;;;;;;;;;;;;;;;;;;;;;;;;;;;;;;;;;;;;;;;;;;;;;;;;;;;;;;;;;;;;;;;;;;;;;;;;;;;;;;;;;;;;;;;;;;;;;;;;;;;;;;;;;;
node;220030470;47.5023332;8.0316396;fuel;Tamoil;;;;Q706793;Tamoil;24/7;;;yes;yes;;;;;;;;;;;;;;;;;;;yes;;;;;;;;;;;;;;;;;;;;;;;;;;;;;;;;;;;;;;;;;;;;;;;;;;;;;;;;;;;;;;;;;;;;;;;;;;;;;;;;;;;;;;;;;;;;;;;;;;;;;;;;;;;;;;;;;;;;;;;;;;;;;;;;;;;;;;;;;;;;;;;;;;;;;;;;;;;;;;;;;;;;;;
node;220830818;47.2190519;7.7873795;fuel;Migrol;yes;Migrol;;Q1747771;Migrol Service Langenthal;24/7;de:Migrol;;yes;yes;;;Langenthal;17;4900;Murgenthalstrasse;Langenthal;;;;yes;https://www.migrol.ch/de/;;;;Migrol Langenthal;;;;no;;;;;;;;;;;;;;;;;;;;;;;;;;;;;;;;;yes;;;;;;;;;;;;;;;;;;;;;;;;;;;;;;;;;;;;;;;;;;;;;;;;;;;;;;;;;;;;;;;;;;;;;;;;;;;;;;;;;;;;;;;;;;;;;;;;;;;;;;;;;;;;;;;;;;;;;;;;;;;;;;;;;;;;
node;243881645;47.5882149;8.8857991;fuel;Avia;yes;;;Q300147;AVIA;24/7;;;yes;yes;;;Weiningen TG;26;8532;Hauptstrasse;;yes;;;yes;;;;;;;;;;CH;yes;yes;yes;;yes;;;;;yes;;;;;;;;;;;;;;;;;;;;;;;;;;;;;;;;yes;yes;yes;;;;;;;;;;;;;;;;;;;;;;;;;;;;;;;;;;;;;;;;;;;;;;;;;;;;;;;;;;;;;;;;;;;;;;;;;;;;;;;;;;;;;;;;;;;;;;;;;;;;;;;;;;;;;;;;;;;;;;;;
node;244479991;46.8164575;9.2670205;fuel;;;;;;Coop;;;;;;;;;;;;;;;;;;;;;;;;;;;;;;;;;;;;;;;;;;;;;;;;;;;;;;;;;;;;;;;;;;;;;;;;;;;;;;;;;;;;;;;;;;;;;;;;;;;;;;;;;;;;;;;;;;;;;;;;;;;;;;;;;;;;;;;;;;;;;;;;;;;;;;;;;;;;;;;;;;;;;;;;;;;;;;;;;;;;;;;;;;;;;;
node;246650988;47.2300466;8.9620388;fuel;Migrol;;Migrol;;Q1747771;Migrol Service Schmerikon;;de:Migrol;;;;;;Schmerikon;75a;8716;St. Gallerstrasse;Schmerikon;;;;;https://www.migrol.ch/de/;;;;Migrol Schmerikon;;;;;;;;;;;;;;;;;;;;;;;;;;;;;;;;;;;;;;;;;;;;;;;;;;;;;;;;;;;;;;;;;;;;;;;;;;;;;;;;;;;;;;;;;;;;;;;;;;;;;;;;;;;;;;;;;;;;;;;;;;;;;;;;;;;;;;;;;;;;;;;;;;;;;;;;;;;;;;;;;;;;;;;;;
node;247345256;47.2269883;7.8404587;fuel;Eni;;;;Q565594;Eni;;;;;;;;;;;;;;;;;;;;;;;;;;;;;;;;;;;;;;;;;;;;;;;;;;;;;;;;;;;;;;;;;;;;;;;424293465317139;;;;;;;;;;;;;;;;;;;;;;;;;;;;;;;;;;;;;;;;;;;;;;;;;;;;;;;;;;;;;;;;;;;;;;;;;;;;;;;;;;;;;;;;;;;;;;;;;;;;;;;;;;;;;;;;;;;;;;;
node;247697427;47.6602469;8.8750941;fuel;;yes;Avia;;;;;;;yes;yes;;;;;;;;;;;;;;;;;;;;convenience;;;;;;;;;;;;;;;;;;;;;;;;;;;;;;;;;;;;;;;;;;;;;;;;;;;;;;;;;;;;;;;;;;;;;;;;;;;;;;;;;;;;;;;;;;;;;;;;;;;;;;;;;;;;;;;;;;;;;;;;;;;;;;;;;;;;;;;;;;;;;;;;;;;;;;;;;;;;;;;;;;;;;
node;247702040;47.7046119;8.8205492;fuel;Migrol;yes;Migrol;;Q1747771;Migrol Service Ramsen;;de:Migrol;yes;yes;yes;;;Ramsen;;8262;;Ramsen Petersburg 343B;;;;;https://www.migrol.ch/de/;;;;;;;;;;;;;;;;;;;;;;;;;;;;;;;;;;;;;;;;;;Fam. Rupf AG;;;;;;;;;;;;;Petersburg;;;;;;;;;;;;;;;;;;;;;;;;;;;;;;;;;;;;;;;;;;;;;;;;;;;;;;;;;;;;;;;;;;;;;;;;;;;;;;;;;;;;;;;;;;;;;;;;;;;;;;;;;;;;;;;;;;;;;;
node;247702174;47.706782;8.820345;fuel;Migrol;yes;Migrol;yes;Q1747771;Migrol Tankstelle Ramsen;24/7;de:Migrol;no;yes;yes;;;Ramsen;;8262;;Ramsen Petersburg 415;;;;;https://www.migrol.ch/de/;;;;;;;;;;;;;;;;;;;;;;;;;;;;;;;;;;;;;;;;;;Fam. Rupf AG;;;;;;;;;;;;;Petersburg;;;;;;;;;;;;;;;;;;;;;;;;;;;;;;;;;;;;;;;;;;;;;;;;;;;;;;;;;;;;;;;;;;;;;;;;;;;;;;;;;;;;;;;;;;;;;;;;;;;;;;;;;;;;;;;;;;;;;;
node;247702175;47.7092628;8.8208431;fuel;Eni;;;;Q565594;Eni;;en:Eni;yes;;;;;;;;;;;;;;;;;;;;;;;;;;;;;;;;;;;;;;;;;;;;;;;;;;;;;;;;;;;;;;;;;;;;;;;;;;;;;;;;;;;;;;;;;;;;;;;;;;;;;;;;;;;;;;;;;;;;;;;;;;;;;;;;;;;;;;;;;;;;;;;;;;;;;;;;;;;;;;;;;;;;;;;;;;;;;;;;;;;;;;;;;;;
node;248973336;47.200788;9.3375706;fuel;Avia;;;;Q300147;Avia;;;;;;;;;;;;;;;;;;;;;;;;;;;;;;;;;;;;;;;;;;;;;;;;;;;;;;;;;;;;;;;;;;;;;;;;;;;;;;;;;;;;;;;;;;;;;;;;;;;;;;;;;;;;;;;;;;;;;;;;;;;;;;;;;;;;;;;;;;;;;;;;;;;;;;;;;;;;;;;;;;;;;;;;;;;;;;;;;;;;;;;;;;;;;;
node;249500787;47.374827;8.6428183;fuel;SOCAR;;SOCAR Energy Switzerland;;Q1622293;SOCAR Fällanden;;en:SOCAR;;;;;;Fällanden;41;8117;Schwerzenbachstrasse;Fällanden;;;;;https://www.socarenergy.ch/;;;;;;;;;;;;;;;;;;;;;;;;;;;;;;;;;;;;;;;;;;;;;;;;;;;;;;;;;;;;;;;;;;;;;;;;;;;;;;;;;;;;;;;;;;;;;;;;;;;;;;;;;;;;;;;;;;;;;;;;;;;;;;;;;;;;;;;;;;;;;;;;;;;;;;;;;;;;;;;;;;;;;;;;;;;;;
node;251364446;47.5659008;9.0967582;fuel;Coop;yes;Coop Mineraloel;yes;;Coop Tankstelle;Mo-Sa 06:00-22:00, Su 08:00-20:00;;;yes;yes;;;;;;;Weinfelden Thurmarkt;;;;;;;;;Coop Tankstelle Thurmarkt;;;;;;;;;;;;;;;;;;;;;;;;;;;;;;;;;;;;;;;;;;;;;;;;;;;;;;;;;;;;;;;;;;;;;;;;;;;;;;;;;;;;;;;;;;;;;;;;;;;;;;;;;;;;;;;;;;;;;;;;;;;;;;;;;;;;;;;;;;;;;;;;;;;;;;;;;;;;;;;;;;;;;;;;;
node;251364447;47.5629712;9.1047017;fuel;Shell;yes;Migrol;;Q154950;Migrol Service Weinfelden;;de:Royal Dutch Shell;;yes;;;;Weinfelden;14;8570;Dufourstrasse;Weinfelden;;;;;https://www.migrol.ch/de/;;yes;;Migrol Weinfelden;;;;;;;;;;;;;;;;;;;;;;;;;;;;;;;;;;;;;;;;;;;;;;;;;;;;;;;;;;;;;;;;;;;;;;;;;;;;;;;;;;;;;;;;;;;;;;;;;;;;;;;;;;;;;;;;;;;;;;;;;;;;;;;;;;;;;;;;;;;;;;;;;;;;;;;;;;;;;;;;;;;;;;;;;
node;251364453;47.5644097;9.0999412;fuel;Eni;yes;Garage Krapf AG;;;;24/7;;;yes;yes;;;;;;;;;;;yes;https://www.garage-krapf.ch/;;;;;;yes;;;;;;;;;;;;;;;;;;;;;;;;;;;;;;;;;;;;;;;;;;;;;;;;;;;;;;;;;;;;;;;;;;;;;;;;;;;;;;;;;;;;;;;;;;;;;;;;;;;;;;;;;;;;;;;;;;;;;;;;;;;;;;;;;;;;;;;;;;;;;;;;;;;;;;;;;;;;;;;;;;;;;;;
node;251364454;47.5622326;9.1211508;fuel;BP;;AMAG;;;;;;;;;;;;;;;;;;;;;;;;;;;;;;;;;;;;;;;;;;;;;;;;;;;;;;;;;;;;;;;;;;;;;;;;;;;;;;;;;;;;;;;;;;;;;;;;;;;;;;;;;;;;;;;;;;;;;;;;;;;;;;;;;;;;;;;;;;;;;;;;;;;;;;;;;;;;;;;;;;;;;;;;;;;;;;;;;;;;;;;;;;;;;;;;;
node;251540984;47.5101487;8.3679597;fuel;;;;;;;;;;;;;;;;;;;;;;;;;;;;;;;;;;;;;;;;;;;;;;;;;;;;;;;;;;;;;;;;;;;;;;;;;;;;;;;private;;;;;;;;;;;;;;;;;;;;;;;;;;;;;;;;;;;;;;;;;;;;;;;;;;;;;;;;;;;;;;;;;;;;;;;;;;;;;;;;;;;;;;;;;;;;;;;;;;;;;;;;;;;;;;;;;;;;;
node;253239439;46.9650682;7.4638599;fuel;Shell;yes;Shell;yes;Q154950;Shell;24/7;en:Royal Dutch Shell;;yes;;;;;;;;;;;;;;;yes;;;;;;;;;;;;;3.7;;;;;;;;;;;;;;;;;;;;;;;;;;;;;;;;;;;;;;;;;;;;;;;;;;;;;;;;;;;;;;;;;;;;;;;;;;;;;;;;;;;;;;;;;;;;;;;;;;;;;;;;;;;;;;;;;;;;;;;;;;;;;;;;;;;;;;;;;;;;;;;;;;;;;;;;;;;;;;
node;254289007;47.2259769;8.2621212;fuel;;;;;;Scherer Hitzkirch;;;;;;;;;;;;;;;;;;;;;;;;;;;;;;;;;;;;;;;;;;;;;;;;;;;;;;;;;;;;;;;;;;;;;;;;;;;;;;;;;;;;;;;;;;;;;;;;;;;;;;;;;;;;;;;;;;;;;;;;;;;;;;;;;;;;;;;;;;;;;;;;;;;;;;;;;;;;;;;;;;;;;;;;;;;;;;;;;;;;;;;;;;;;;;
node;255007349;47.4436565;8.465643;fuel;Coop;yes;Coop Mineraloel;;;Coop Tankstelle Regensdorf;;;;yes;yes;2024-06-23;;;;;;Regensdorf;;;;yes;;;;;;;;;;;;;;;;;;;;;;;;;;;;;;;;;;;;;;;;;;;;;;;;;;;;;;;;;;;;;;;;;;;;;;;;;;;;;;;;;;;;;;;;;;;;;;;;;;;;;;;;;;;;;;;;;;;;;;;;;;;;;;;;;;;;;;;;;;;;;;;;;;;;;;;;;;;;;;;;;;;;;;;;;;;;;;
node;256221360;47.1647171;7.4235966;fuel;;;;;;;;;;;;;Potlatch 0.8a;;;;;;;;;;;;;;;;;;;;;;;;;;;;;;;;;;;;;;;;;;;;;;;;;;;;;;;;;;;;;;;;;;;;;;;;;;;;;;;;;;;;;;;;;;;;;;;;;;;;;;;;;;;;;;;;;;;;;;;;;;;;;;;;;;;;;;;;;;;;;;;;;;;;;;;;;;;;;;;;;;;;;;;;;;;;;;;;;;;;;;;
node;256757662;46.7809278;7.6041999;fuel;Tamoil;;Tamoil;yes;Q706793;Tamoil;;;;;;;;;;;;;;;;;;;;;;;;;;;;;;;;;;;;;;;;;;;;;;;;;;;;;;;;;;;;;;;;;;;;;;;;;;;;;;;;;;;;;;;;;;;;;;;;;;;;;;;;;;;;;;;;;;;;;;;;;;;;;;;;;;;;;;;;;;;;;;;;;;;;;;;;;;;;;;;;;;;;;;;;;;;;;;;;;;;;;;;;;;;;;;
node;257281284;47.1884095;8.396334;fuel;BP;yes;;limited;Q152057;Auto Suter;;en:BP;;yes;;;;;;;;;;;;;;;;;;;;;;;;;;;;;;;;;;;;;;;;;;;;;;;;;;;;;;;;;;;;;;;;;;;;;;;;;;;;;;;;;;;;;;;;;;;;;;;;;;;;;;;;;;;;;;;;;;;;;;;;;;;;;;;;;;;;;;;;;;;;;;;;;;;;;;;;;;;;;;;;;;;;;;;;;;;;;;;;;;;;;;;;;;
node;257282729;47.1964661;8.4341059;fuel;Avia;;;;;;;;;;;;;;;;;;;;;;;;;;;;;;;;;;;;;;;;;;;;;;;;;;;;;;;;;;;;;;;;;;;;;;;;;;;;;;;;;;;;;;;;;;;;;;;;;;;;;;;;;;;;;;;;;;;;;;;;;;;;;;;;;;;;;;;;;;;;;;;;;;;;;;;;;;;;;;;;;;;;;;;;;;;;;;;;;;;;;;;;;;;;;;;;;;;
node;258875594;47.1913959;8.8947716;fuel;Avia;;;;Q300147;Avia;24/7;de:Avia International;;;;;;;;;;;;;;yes;;;;;;;;;;;;;;;;;;;;;;;;;;;;;;;;;;;;;;;;;;;;;;;;;;;;;;;;;;;;;;;;;;;;;;;;;;;;;;;;;;;;;;;;;;;;;;;;;;;;;;;;;;;;;;;;;;;;;;;;;;;;;;;;;;;;;;;;;;;;;;;;;;;;;;;;;;;;;;;;;;;;;;;;;;;;;;
node;260443215;47.5809034;7.5942068;fuel;Shell;yes;Migrol;;Q154950;Migrol Service Kleinhüningen;;;;yes;;;;Basel;106;4057;Hochbergerstrasse;Basel Kleinhüningen;;;;;https://www.migrol.ch/de/;;yes;;Migrol Kleinhüningen;;;;;;;;;;;;;;;;;;;;;;;;;;;;;;;;;;;;;;;;;;;;;;;;;;;;;;;;;;;;;;;;;;;;;;;;;;;;;;;;;;;;;;;;;;;;;;;;;;;;;;;;;;;;;;;;;;;;;;;;;;;;;;;;;;;;;;;;;;;;;;;;;;;;;;;;;;;;;;;;;;;;;;;;;
node;261741477;47.0254724;6.8895249;fuel;;;;;;Le Pit-Stop;Mo-Su 06:00-22:00;;;;;;;;;;;;;;;;;;;;;;;;;;;;;;;;;;;;;;;;;;;;;;;;;;;;;;;;;;;;;;;;;;;;;;;;;;;;;;;;;;;;;;;;;;;;;;;;;;;;;;;;;;;;;;;;;;;;;;;;;;;;;;;;;;;;;;;;;;;;;;;;;;;;;;;;;;;;;;;;;;;;;;;;;;;;;;;;;;;;;;;;;;;;;
node;262931005;46.5513518;7.3760619;fuel;;;;;;;;;;;;;;;;;;;;;;;;;;;;;;;;;;;;;;;;;;;;;;;;;;;;;;;;;;;;;;;;;;;;;;;;;;;;;;;;;;;;;;;;;;;;;;;;;;;;;;;;;;;;;;;;;;;;;;;;;;;;;;;;;;;;;;;;;;;;;;;;;;;;;;;;;;;;;;;;;;;;;;;;;;;;;;;;;;;;;;;;;;;;;;;;;;;;
node;263923036;47.3555523;8.3260826;fuel;Shell;;Shell (Switzerland);;Q110716465;Shell Fohlenweide;;;;;;;;Bremgarten;18;5620;Wohlerstrasse;Bremgarten Fohlenweide;;;;;https://find.shell.com/ch/fuel/10023379-shell-fohlenweide/de_CH;;;;;;;;;;;;;;;;;;;;;;;;;;;;;;;;;;;;;;;;;;;;;;;;;;;;;;;;;;;;;;;;;;;;;;;;;;;;;;;;;;;;;;;;;;;;;;;;;;;;;;;;;;;;;;;;;;;;;;;;;;;;;;;;;;;;;;;;;;;;;;;;;;;;;;;;;;;;;;;;;;;;;;;;;;;;;
node;264065504;47.4155139;8.5903409;fuel;Shell;;Garage Hans Odermatt AG;yes;Q154950;Shell Wallisellen Zentrum;;;;;;;;;;;;Wallisellen Garage Odermatt;;;;;;;;;;;;;;;;;;;;;;;;;;;;;;;;;;;;;;;;;;;;;;;;;;;;;;;;;;;;;;;;;;;;;;;;;;;;;;;;;;;;;;;;;;;;;;;;;;;;;;;;;;;;;;;;;;;;;;;;;;;;;;;;;;;;;;;;;;;;;;;;;;;;;;;;;;;;;;;;;;;;;;;;;;;;;;;;;;
node;264073160;47.4665171;8.2915271;fuel;;;;yes;;coop pronto;Mo-Su 06:00-23:00;;;;;;;;;;;;;;;;;;;;;;;;;;;;;;;;;;;;;;;;;;;;;;;;;;;;;;;;;;;;;;postfinance_card;no;no;checkout;;;;;;;;;;;;;;;;;;;;;;;;;;;;;;;;;;;;;;;;;;;;;;;;;;;;;;;;;;;;;;;;;;;;;;;;;;;;;;;;;;;;;;;;;;;;;;;;;;;;;;;;;;;;;;;;;;;;;;;;;;;;
node;264378536;47.13014;7.6156648;fuel;Agrola;yes;Agrola;;;;;;;yes;yes;;;;;;;;;;;yes;;;;;;;;;;;;;;;;;;;;;;;;;;;;;;;;;;;;;;;;;;;;;;;;;;;survey;;;;;;;;;;;;;;;;;;;;;;;;;;;;;;;;;;;;;;;;;;;;;;;;;;;;;;;;;;;;;;;;;;;;;;;;;;;;;;;;;;;;;;;;;;;;;;;;;;;;;;;;;;;;;;;;;;;;;;;;;;;
node;264529525;46.9715008;9.5513162;fuel;Coop;yes;;yes;;Coop;24/7;;yes;yes;yes;;;Maienfeld;1;7302;Tardis;;no;;;;;;;;;;;;;CH;;;;;;;;;;;;;;;;;;;;;;;;;;;;;;;;;;;;;;;;;;;;;;;;;;;;;;;;;;;;;;;;;;;;;;;;;;;;;;;;;;;;;;;;;;;;;;;;;;;;;;;;;;;;;;;;;;;;;;;;;;;;;;;;;;;;;;;;;;;;;;;;;;;;;;;;;;;;;;;;;;;;
node;264530018;47.2365959;7.2824556;fuel;;;;;;;;;;;;;Potlatch 0.9a;;;;;;;;;;;;;;;;;;;;;;;;;;;;;;;;;;;;;;;;;;;;;;;;;;;;;;;;;;;;;;;;;;;;;;;;;;;;;;;;;;;;;;;;;;;;;;;;;;;;;;;;;;;;;;;;;;;;;;;;;;;;;;;;;;;;;;;;;;;;;;;;;;;;;;;;;;;;;;;;;;;;;;;;;;;;;;;;;;;;;;;
node;264610443;47.1669957;7.4346003;fuel;;;;;;;;;;;;;;;;;;;;;;;;;;;;;;;;;;;;;;;;;;;;;;;;;;;;;;;;;;;;;;;;;;;;;;;;;;;;;;;;;;;;;;;;;;;;;;;;;;;;;;;;;;;;;;;;;;;;;;;;;;;;;;;;;;;;;;;;;;;;;;;;;;;;;;;;;;;;;;;;;;;;;;;;;;;;;;;;;;;;;;;;;;;;;;;;;;;;
node;264771144;47.3450623;7.9074428;fuel;Shell;;Migrol;;Q154950;Migrol Service Olten;;;yes;;;;;Olten;115;4600;Aarburgerstrasse;Olten;;;;;https://www.migrol.ch/de/;;;;Migrol Olten;;;;;;;;;;;;;;;;;;;;;;;;;;;;;;;;;;;;;;;;;;;;;;survey;;;;;;;;;;;;;;;;;;;;;;;;;;;;;;;;;;;;;;;;;;;;;;;;;;;;;;;;;;;;;;;;;;;;;;;;;;;;;;;;;;;;;;;;;;;;;;;;;;;;;;;;;;;;;;;;;;;;;;;;;;;
node;264794355;47.4128994;8.6168482;fuel;Coop;;Coop Mineraloel;yes;;Coop Tankstelle Dietlikon;;;;;;;;;;;;Dietlikon;;;;;;;;;;;;;;;;;;;;;;;;;;;;;;;;;;;;;;;;;;;;;;;;;;;;;;;;;;;;;;;;;;;;;;;;;;;;;;;;;;;;;;;;;;;;;;;;;;;;;;;;;;;;;;;;;;;;;;;;;;;;;;;;;;;;;;;;;;;;;;;;;;;;;;;;;;;;;;;;;;;;;;;;;;;;;;;;;;
node;264889459;47.3042342;8.6906319;fuel;Avia;yes;;;Q300147;Avia;;;;yes;yes;;;Egg b. Zürich;2;8132;Im Hanselmaa;;;;;;;;;;;;;;;;;;;;;;;;;;;;;;;;;;;;;;;;;;;;;;;;;;;;;;;;;;;;;;;;;;;;;;;;;;;;;;;;;;;;;;;;;;;;;;;;;;;;;;;;;;;;;;;;;;;;;;;;;;;;;;;;;;;;;;;;;;;;;;;;;;;;;;;;;;;;;;;;;;;;;;;;;;;;;;;;;;;
node;265569040;47.2742006;8.7248486;fuel;;;;;;Avia;;;;;;;JOSM;;;;;;;;;;;;;;;;;;;;;;;;;;;;;;;;;;;;;;;;;;;;;;;;;;;;;;;;;;;;;;;;;;;;;;;;;;;;;;;;;;;;;;;;;;;;;;;;;;;;;;;;;;;;;;;;;;;;;;;;;;;;;;;;;;;;;;;;;;;;;;;;;;;;;;;;;;;;;;;;;;;;;;;;;;;;;;;;;;;;;;;
node;265627180;46.9590478;7.4559202;fuel;Migrol;;Migrol;;Q1747771;Migrol Breitenrain;;;;;;;;;;;;;;;;;;;;;;;;;;;;;;;;;;;;;;;;;;;;;;;;;;;;;;;;;;;;;;;;;;;;;;;;;;;;;;;;;;;;;;;;;;;;;;;;;;;;;;;;;;;;;;;;;;;;;;;;;;;;;;;;;;;;;;;;;;;;;;;;;;;;;;;;;;;;;;;;;;;;;;;;;;;;;;;;;;;;;;;;;;;;;;
node;265718046;46.9435757;6.8301809;fuel;;;Miniprix;;;Les Tilles;;;;;;;;Boudry;;2017;;;;;;;;;;+41 32 7290290;;;;;;;;;;;;;;;;;;;;;;;;;;;;;;;;;;;;;;;;;;;;;;;;;;;;;;;;;;;;;;;;;;;;;;;;;;;;;;;;;;;;;;;;;;;;;;;;;;;;;;;;;;;;;;;;;;;;;;;;;;;;;;;;;;;;;;;;;;;;;;;;;;;;;;;;;;;;;;;;;;;;;;;;;;
node;265823655;47.0779673;7.5746866;fuel;;;Coop;;;Coop;;;;;;2024-01-04;;;;;;;;;;;;;;;;;yes;;;;;;;;;;;;;;;;;;;;;;;;;;;;;;;;;;;;;;;;;;;;;;;;;;;;;;;;;;;;;;;;;;;;;;;;;;;;;;;;;;;;;;;;;;;;;;;;;;;;;;;;;;;;;;;;;;;;;;;;;;;;;;;;;;;;;;;;;;;;;;;;;;;;;;;;;;;;;;;;;;;;;;;
node;266285284;47.4502033;8.2907357;fuel;SOCAR;;SOCAR Energy Switzerland;;Q1622293;SOCAR Dättwil;;;;;;;;Dättwil;216;5405;Mellingerstrasse;Dättwil;;;;;https://www.socarenergy.ch/;;;;;;;;;;;;;;;;;;;;;;;;;;;;;;;;;;;;;;;;;;;;;;;;;;;;;;;;;;;;;;;;;;;;;;;;;;;;;;;;;;;;;;;;;;;;;;;;;;;;;;;;;;;;;;;;;;;;;;;;;;;;;;;;;;;;;;;;;;;;;;;;;;;;;;;;;;;;;;;;;;;;;;;;;;;;;
node;266285329;47.4518737;8.2897349;fuel;;;;;;Tamoil;;;;;;2025-02-23;;;;;;;;;;;;;;;;;;;;;;;;;;;;;;;;;;;;;;;;;;;;;;;;;;;;;;;;;;;;;;;;;;;;;;;;;;;;;;;;;;;;;;;;;;;;;;;;;;;;;;;;;;;;;;;;;;;;;;;;;;;;;;;;;;;;;;;;;;;;;;;;;;;;;;;;;;;;;;;;;;;;;;;;;;;;;;;;;;;;;;;;
node;266542839;46.5458;6.5871529;fuel;BP;;BP;;Q152057;BP;;en:BP;;;;;;;;;;;;;;;;;;;;;;;;;;;;;;;;;;;;;;;;;;;;;;;;;;;;;;;;;;;;;;;;;;;;;;;;;;;;;;;;;;;;;;;;;;;;;;;;;;;;;;;;;;;;;;;;;;;;;;;;;;;;;;;;;;;;;;;;;;;;;;;;;;;;;;;;;;;;;;;;;;;;;;;;;;;;;;;;;;;;;;;;;;;;
node;266542840;46.548827;6.5799914;fuel;Tamoil;;;;Q706793;Tamoil;;en:Tamoil;;;;;;Crissier;2;;Route de Prilly;;;;;;;;;;;;;;;;;;;;;;;;;;;;;;;;;;;;;;;;;;;;;;;;;;;;;;;;;;;;;;;;;;;;;;;;;;;;;;;;;;;;;;;;;;;;;;;;;;;;;;;;;;;;;;;;;;;;;;;;;;;;;;;;;;;;;;;;;;;;;;;;;;;;;;;;;;;;;;;;;;;;;;;;;;;;;;;;;;;
node;266542843;47.0977652;6.8367095;fuel;Tamoil;;;;Q706793;Tamoil;;en:Tamoil;;;;;;;;;;;;;;;;;;;;;;;;;;;;;;;;;;;;;;;;;;;;;;;;;;;;;;;;;;;;;;;;;;;;;;;;;;;;;;;;;;;;;;;;;;;;;;;;;;;;;;;;;;;;;;;;;;;;;;;;;;;;;;;;;;;;;;;;;;;;;;;;;;;;;;;;;;;;;;;;;;;;;;;;;;;;;;;;;;;;;;;;;;;;
node;266561086;47.3232719;7.8042047;fuel;Tamoil;;;;Q706793;Tamoil;;;;;;;;;;;;;;;;;;;;;;;;;;;;;;;;;;;;;;;;;;;;;;;;;;;;;;;;;;;;;;;;;;;;;;;;;;;;;;;;;;;;;;;;;;;;;;;;;;;;;;;;;;;;;;;;;;;;;;;;;;;;;;;;;;;;;;;;;;;;;;;;;;;;;;;;;;;;;;;;;;;;;;;;;;;;;;;;;;;;;;;;;;;;;;
node;266825152;47.1812476;8.8976164;fuel;Agrola;yes;;yes;Q397351;Agrola;24/7;de:Agrola;yes;yes;yes;2023-12-25;;;;;;;;;;;;;;;;;;;;;;;;;;;;;;;;;;;;;;;;;;;;;;;;;;;;;;;;;;;;;;;;;;;;;;;;;;;;;;;;;;;;;;;;;;;;;;;;;;;;;;;;;;;;;;;;;;;;;;;;;;;;;;;;;;;;;;;;;;;;;;;;;;;;;;;;;;;;;;;;;;;;;;;;;;;;;;;;;;;;;;;;
node;266953468;47.2531303;8.6194521;fuel;Avia;yes;A.H. Meyer & Cie;;Q300147;Avia;24/7;;no;yes;yes;;;Horgen;340;8810;Seestrasse;;;;;yes;;;;;;;;;;;;;;;;;;;;;;;;;;;;;;;;;;;;;;;;;;yes;Seegarage Müller;;;;;;;;;;;;;;;;;;;;;;;;;;;;;;;;;;;;;;;;;;;;;;;;;;;;;;;;;;;;;;;;;;;;;;;;;;;;;;;;;;;;;;;;;;;;;;;;;;;;;;;;;;;;;;;;;;;;;;;;;;;;;;;;;;;
node;267053552;46.5535448;6.5707336;fuel;Migrol;;;;Q1747771;Migrol;;de:Migrol;;;;;;;;;;;;;;;;;;;;;;;;;;;;;;;;;;;;;;;;;;;;;;;;;;;;;;;;;;;;;;;;;;;;;;;;;;;;;;;;;;;;;;;;;;;;;;;;;;;;;;;;;;;;;;;;;;;;;;;;;;;;;;;;;;;;;;;;;;;;;;;;;;;;;;;;;;;;;;;;;;;;;;;;;;;;;;;;;;;;;;;;;;;;
node;267053810;46.505564;6.4859824;fuel;Eni;;Eni;;Q565594;Eni;;;yes;;;;;Morges;2;1110;Avenue de Riond-Bosson;;;;;;;;;;;;;;;;;;;;;;;;;;;;;;;;;;;;;;;;;;;;;;;;;;;;;;;;;;;;;;;+41 21 802 28 35;;;;;;;;;;;;;;;;;;;;;;;;;;;;;;;;;;;;;;;;;;;;;;;;;;;;;;;;;;;;;;;;;;;;;;;;;;;;;;;;;;;;;;;;;;;;;;;;;;;;;;;;;;;;;;;;;;;;
node;267053813;46.50091;6.4844802;fuel;Eni;;;;Q565594;Eni;;;yes;;;;;;;;;;;;;;;;;;;;;;;;;;;;;;;;;;;;;;;;;;;;;;;;;;;;;;;;;;;;;;;;;;;;;;;;;;;;;;;;;;;;;;;;;;;;;;;;;;;;;;;;;;;;;;;;;;;;;;;;;;;;;;;;;;;;;;;;;;;;;;;;;;;;;;;;;;;;;;;;;;;;;;;;;;;;;;;;;;;;;;;;;;;
node;267211865;46.4744222;6.4131575;fuel;BP;;BP;;Q152057;BP;Mo-Su,PH 00:00-24:00;;no;;;;;;;;;;;;;;;;;;;;;;;;;;;;;;;;;;;;;;;;;;;;;;;;;;;;;;;;;;;;;;;;;;;;;;;;;;;;;;;;;;;;;;;;;;;;;;;;;;;;;;;;;;;;;;;;;;;;;;;;;;;;;;;;;;;;;;;;;;;;;;;;;;;;;;;;;;;;;;;;;;;;;;;;;;;;;;;;;;;;;;;;;;;
node;267212190;46.5235927;6.5981586;fuel;;;;;;;;;;;;;;;;;;;;;;;;;;;;;;;;;;;;;;;;;;;;;;;;;;;;;;;;;;;;;;;;;;;;;;;;;;;;;;;;;;;;;;;;;;;;;;;;;;;;;;;;;;;;;;;;;;;;;;;;;;;;;;;;;;;;;;;;;;;;;;;;;;;;;;;;;;;;;;;;;;;;;;;;;;;;;;;;;;;;;;;;;;;;;;;;;;;;
node;267924554;47.3971141;8.0409728;fuel;Ruedi Rüssel;;;;Q111725154;Ruedi Rüssel;;;;;;;;;;;;;;;;yes;;;;;;;;;;;;;;;;;;;;;;;;;;;;;;;;;;;;;;;;;;;;;;;;;;;;;;;;;;;Ruedi Rüssel;fuel;fuel;;;;;;;;;;;;;;;;;;;;;;;;;;;;;;;;;;;;;;;;;;;;;;;;;;;;;;;;;;;;;;;;;;;;;;;;;;;;;;;;;;;;;;;;;;;;;;;;;;;;;;;;;;;;;;;;;
node;268469414;47.3695212;8.5107127;fuel;Independent;yes;;yes;;Tankstelle Wyss;;;yes;yes;yes;2024-01-20;;Zürich;178;8055;Talwiesenstrasse;;;;;;;;;;;;;;;CH;;;;;;;;;;;;;;;;;;;;;;;;;;;;;;;;;;;;;;;;;;;;;;;;;;;;bediente Tankstelle;;;;;;;;;;;;;;;;;;;;;;;;;;;;;;;;;;;;;;;;;;;;;;;;;;;;;;;;;;;;;;;;;;;;;;;;;;;;;;;;;;;;;;;;;;;;;;;;;;;;;;;;;;;;;;;;
node;268742610;47.4048172;8.0919529;fuel;Tamoil;;;;Q706793;Tamoil;24/7;;yes;;;;;Aarau Rohr;85;5032;Hauptstrasse;;;;;;;;;;;;;;;;;;;;;;;;;;;;;;;;;;;;;;;;;;;;;;;;;;;;;;;;;;;;;;;;;;;;;;;;;;;;;;;;;;;;;;;;;;;;;;;;;;;;;;;;;;;;;;;;;;;;;;;;;;;;;;;;;;;;;;;;;;;;;;;;;;;;;;;;;;;;;;;;;;;;;;;;;;;;;;;;;;;
node;268892714;46.7653822;7.6258053;fuel;Shell;yes;;yes;;;;;;yes;;;;;;;;;;;;;;;;;;;;;;;;;;;;;;;;;;;;;;;;;;;;;;;;;;;;;;;;;;;;;;;;;;;;;;;;;;;;;;;;;;;;;;;;;;;;;;;;;;;;;;;;;;;;;;;;;;;;;;;;;;;;;;;;;;;;;;;;;;;;;;;;;;;;;;;;;;;;;;;;;;;;;;;;;;;;;;;;;;;;;;;;;;
node;268893437;46.76141;7.6272964;fuel;;;;;;Grabengut;;;yes;;;;;;;;;;;;;;;;;;;;;;;;;;;;;;;;;;;;;;;;;;;;;;;;;;;;;;;;;;;;;;;;;;;;;;;;;;;;;;;;;;;;;;;;;;;;;;;;;;;;;;;;;;;;;;;;;;;;;;;;;;;;;;;;;;;;;;;;;;;;;;;;;;;;;;;;;;;;;;;;;;;;;;;;;;;;;;;;;;;;;;;;;;;
node;269050377;47.3566826;8.7118888;fuel;;;private;;;;;;yes;;;;;;;;;;;;;;;;;;;;;;;;;;;;;;;;;;;;;;;;;;;;;;;;;;;;;;;;;;;;;;;;;;;;;;;;;;;;;;;;;;;;;;;;;;;;;;;;;;;;;;;;;;;;;;;;;;;;;;;;;;;;;;;;;;;;;;;;;;;;;;;;;;;;;;;;;;;;;;;;;;;;;;;;;;;;;;;;;;;;;;;;;;;
node;269059096;46.778549;6.649017;fuel;;;;yes;;Cuendet;06:00-22:00;;;;;;;Yverdon-les-Bains;;1400;;;;;;;;;;;;;;;;CH;;;;;;;;;;;;;;;;;;;;;;;;;;;;;;;;;;;;;;;;;;;;;;;;;;;;;yes;;;;;;;;;;;;;;;;;;;;;;;;;;;;;;;;;;;;;;;;;;;;;;;;;;;;;;;;;;;;;;;;;;;;;;;;;;;;;;;;;;;;;;;;;;;;;;;;;;;;;;;;;;;;;;;
node;269120240;47.3521481;8.722673;fuel;Shell;;Shell (Switzerland);;Q110716465;Shell Im Brunnen;;;no;;;;;Uster;2;8610;Feldhofstrasse;Uster Im Brunnen;;;;;https://find.shell.com/ch/fuel/10023340-shell-im-brunnen/de_CH;;;;;;;;;;;;;;;;;;;;;;;;;;;;;;;;;;;;;;;;;;;;;;;;;;;;;;;;;;;;;;;;;;;;;;;;;;;;;;;;;;;;;;;;;;;;;;;;;;;;;;;;;;;;;;;;;;;;;;;;;;;;;;;;;;;;;;;;;;;;;;;;;;;;;;;;;;;;;;;;;;;;;;;;;;;;;
node;269304240;46.5335973;6.5850826;fuel;Shell;;;;Q110716465;Shell;24/7;;yes;;;;;;;;;;;;;;;;;;;;;;;;;;;;;;;;;;;;;;;;;;;;;;;;;;;;;;;;;;;;;;;;;;;;;;;;;;;;;;;;;;;;;;;;;;;;;;;;;;;;;;;;;;;;;;;;;;;;;;;;;;;;;;;;;;;;;;;;;;;;;;;;;;;;;;;;;;;;;;;;;;;;;;;;;;;;;;;;;;;;;;;;;;;
node;269304246;46.5345567;6.5652376;fuel;Shell;yes;Shell;;Q110716465;Shell;;;;yes;yes;;;Ecublens (VD);3;1024;Chemin du Croset;;;;;;https://find.shell.com;;;+41 21 691 90 80;;;;;;;;;;;;;;;;;;;;;;;;;;;;;;;;;;;;;;;;;;;;;;;;;;;;;;;;;;;;;;;;;;;;;;;;;;;;;;;;;;;;;;;;;;;;;;;;;;;;;;;;;;;;;;;;;;;;;;;;;;;;;;;;;;;;;;;;;;;;;;;;;;;;;;;;;;;;;;;;;;;;;;;;;;
node;269450517;47.5777955;7.5964463;fuel;Coop;yes;Coop Mineraloel;;;Coop Tankstelle;;;;yes;yes;;;Basel;60;4057;Hochbergerstrasse;Basel Hochbergerstrasse;;;;;;;;;Coop Tankstelle Hochbergerstrasse;;;;;;;;;;;;;;;;;;;;;;;;;;;;;no;;;;;;;;;;;;;;;;;;;;;;;;;;;;;;;;;;;;;;;;;;;;;;;;;;;;;;;;;;;;;;;;;;;;;;;;;;;;;;;;;;;;;;;;;;;;;;;;;;;;;;;;;;;;;;;;;;;;;;;;;;;;;;;;;;;;;;;;;;;;
node;269654731;47.5484517;7.546409;fuel;Shell;yes;Migrol;yes;Q154950;Migrol Service Allschwil;;;;yes;;;;Allschwil;91;4123;Binningerstrasse;Allschwil;;;;;https://www.migrol.ch/de/;;yes;;Migrol Allschwil;;yes;;;;;;;;;;;;;;;;;;;;;;;;;;;;;;;;;;;;;;;;;;;;;;;;;;;;;;;;;;;;;;;;;;;;;;;;;;;;;;;;;;;;;;;;;;;;;;;;;;;;;;;;;;;;;;;;;;;;;;;;;;;;;;;;;;;;;;;;;;;;;;;;;;;;;;;;;;;;;;;;;;;;;;;
node;269665687;46.7140743;7.5662706;fuel;Agrola;yes;;;Q397351;Agrola;24/7;;;yes;;;;;;;;;;;;;;;;;;;;;;;;;;;;;;;;;;;;;;;;;;;;;;;;;;;;;;;;;;;;;;;;;;;;;;;;;;;;;;;;;;;;;;;;;;;;;;;;;;;;;;;;;;;;;;;;;;;;;;;;;;;;;;;;;;;;;;;;;;;;;;;;;;;;;;;;;;;;;;;;;;;;;;;;;;;;;;;;;;;;;;;;;;
node;269952262;46.5098465;6.650494;fuel;Shell;yes;Shell;;Q110716465;Shell;;;;yes;yes;;;Pully;;1009;Avenue Charles Ferdinand Ramuz;;;;;yes;;;;;;;;;;;;;;;;;;;;;;;;;;;;;;;;;;;;;;;;;;;;;;;;;;;;;;;;;;;;;;;;;;;;;;;;;;;;;;;;;;;;;;;;;;;;;;;;;;;;;;;;;;;;;;;;;;;;;;;;;;;;;;;;;;;;;;;;;;;;;;;;;;;;;;;;;;;;;;;;;;;;;;;;;;;;;;
node;270051291;46.7283004;8.1836091;fuel;SOCAR;yes;Socar;;Q1622293;SOCAR;;;yes;yes;;;;;;;;;;;;;;;yes;;;;;;kiosk;;;;;;;;;;;;;;;;;;;;;;;;;;;;;;;;;;;;;;;;;;;;;;;;;;;;;;;;;;;;;;;;;;;;;;;;;;;;;;;;;;;;;;;;;;;;;;;;;;;;;;;;;;;;;;;;;;;;;;;;;;;;;;;;;;;;;;;;;;;;;;;;;;;;;;;;;;;;;;;;;;;;;
node;270156438;47.0739754;8.2061972;fuel;;yes;;;;Agrola;;;;yes;;;;;;;;;;;;;;;;;;;;;;;;;;;;;;;;;;;;;;;;;;;;;;;;;;;;;;;;;;;;;;;;;;;;;;;;;;;;;;;;;;;;;;;;;;;;;;;;;;;;;;;;;;;;;;;;;;;;;;;;;;;;;;;;;;;;;;;;;;;;;;;;;;;;;;;;;;;;;;;;;;;;;;;;;;;;;;;;;;;;;;;;;;
node;270288402;46.9694323;8.3525486;fuel;Agrola;;Agrola;;Q397351;Agrola TopShop;;;;;;;;Stans;100;6370;Stansstaderstrasse;;;;;;;;;;;;;;;;;;;;;;;;;;;;;;;;;;;;;;;;;;;;;;;;;;;;;;;;;;;;;;;;;;;;;;;;;;;;;;;;;;;;;;;;;;;;;;;;;;;;;;;;;;;;;;;;;;;;;;;;;;;;;;;;;;;;;;;;;;;;;;;;;;;;;;;;;;;;;;;;;;;;;;;;;;;;;;;;;;;
node;270288802;46.9682968;8.3536859;fuel;;;;;;Auto Wagner;;;;;;;;;;;;;;;;;;;;;;;;;;;;;;;;;;;;;;;;;;;;;;;;;;;;;;;;;;;;;;;;;;;;;;;;;;;;;;;;;;;;;;;;;;;;;;;;;;;;;;;;;;;;;;;;;;;;;;;;;;;;;;;;;;;;;;;;;;;;;;;;;;;;;;;;;;;;;;;;;;;;;;;;;;;;;;;;;;;;;;;;;;;;;;
node;271223009;47.3534438;8.5768921;fuel;BP;yes;;no;Q152057;BP Balgrist;24/7;;no;yes;;;;Zürich;351;8008;Forchstrasse;Zürich Balgrist;;;;yes;;;;;;;;;no;CH;;;;;;;;;;;;;;;;;;;;;;;;;;;;;;;;yes;;;;;;;;;;;;;;;;;;;;;;;;;;;;;;;;;;;;;;;;;;;;;;;;;;;;;;;;;;;;;;;;;;;;;;;;;;;;;;;;;;;;;;;;;;;;;;;;;;;;;;;;;;;;;;;;;;;;;;;;;;;;;;;;;;;;
node;272631681;47.1804162;7.6656035;fuel;;;;;;Hostettler;;;no;;;;;;;;;;;;;;;;;;;;;;;;;;;;;;;;;;;;;;;;;;;;;;;;;;;;;;;;;;;;;;;;knowledge;;;;;;;;;;;;;;;;;;;;;;;;;;;;;;;;;;;;;;;;;;;;;;;;;;;;;;;;;;;;;;;;;;;;;;;;;;;;;;;;;;;;;;;;;;;;;;;;;;;;;;;;;;;;;;;;;;;;;;;;;;;
node;272725604;47.2258573;7.6161562;fuel;BP;;;;Q152057;BP Deitingen Süd;24/7;;;;;;;;;;;;;;;;;;;;;;;;convenience;;;;;;;;;;;;;;;;;;;;;;;;;;;;;;;;;;;;;;;;;;;;;;;;;;;;;;;;;;;;;;;;;;;;;;;;;;;;;;;;;;;;;;;;;;;;;;;;;;;;;;;;;;;;;;;;;;;;;;;;;;;;;;;;;;;;;;;;;;;;;;;;;;;;;;;;;;;;;;;;;;;;;
node;273223793;47.5615058;7.5994793;fuel;Migrol;yes;Migrol;yes;Q1747771;Migrol Service Riehenstrasse;24/7;de:Migrol;;yes;;;;Basel;52;4058;Riehenstrasse;Basel Riehenstrasse;;;;;https://www.migrol.ch/de/;;;;Migrol Riehenstrasse;;;;;;;;;;;3.2;;;;;;;;;;;;;;;;;;;;;;;;;;;Landhof-Garage AG;;;;;;;;;;;;;;;;;;;;;;;;;;;;;;;;;;;;;;;;;;;;;;;;;;;;;;;;;;;;;;;;;;;;;;;;;;;;;;;;;;;;;;;;;;;;;;;;;;;;;;;;;;;;;;;;;;;;;;;;;;;;;;;;;;;
node;273529123;46.8487124;7.189576;fuel;;yes;Renault / Peugeot Minipix TS;;;Zentrum-Garage Düdingen AG;;;;yes;yes;;;Düdingen;36;3186;Hauptstrasse;;;;;;;;;;;;;;;;;;;;;;;;;;;;;;;;;;;;;;;;;;;;;;;;;;;;;;;;Miniprix;;;;;;;;;;;;;Miniprix / Ruedirüssel;;;;;;;;;;;;;;;;;;;;;;;;;;;;;;;;;;;;;;;;;;;;;;;;;;;;;;;;;;;;;;;;;;;;;;;;;;;;;;;;;;;;;;;;;;;;;;;;;;;;;;;;;;;;;;
node;273529124;46.8445768;7.1907102;fuel;Tamoil;yes;Tamoil;;Q706793;Garage Vonlanthen AG;;;;yes;;;;;;;;;;;;;;;;;;;;;;;;;;;;;;;;;;;;;;;;;;;;;;;;;;;;;;;;;;;;;;;;;;;;;;;;;;;;;;;;;;;;;;;;;;;;;;;;;;;;;;;;;;;;;;;;;;;;;;;;;;;;;;;;;;;;;;;;;;;;;;;;;;;;;;;;;;;;;;;;;;;;;;;;;;;;;;;;;;;;;;;;;;
node;274077459;47.0159124;6.9063136;fuel;;;HK;;;Garage de la Station;;;;;;;;;;;;;;;;;;;;;;;;;;;;;;;;;;;;;;;;;;;;;;;;;;;;;;;;;;;;;;;;;;;;;;;;;;;;;;;;;;;;;;;;;;;;;;;;;;;;;;;;;;;;;;;;;;;;;;;;;;;;;;;;;;;;;;;;;;;;;;;;;;;;;;;;;;;;;;;;;;;;;;;;;;;;;;;;;;;;;;;;;;;;;;
node;274592567;47.4896462;7.598234;fuel;Migrol;;Migrol;;Q1747771;Migrol Service Reinach BL;"Mo-Fr 06:00-22:00; Sa,Su 07:00-22:00";de:Migrol;no;;;;;Reinach BL;1;4153;Kägenstrasse;Reinach BL;;;;;https://www.migrol.ch/de/;;;;Migrol Reinach BL;;;;;CH;;;;;;;;;;;;;;;;;;;;;;;;;;;;;;;;;;;;;;;;;;;;;;;;;;;;;;;;;;;;;;;;;;;;;;;;;;;;;;;;;;;;;;;;;;;;;;;;;;;;;;;;;;;;;;;;;;;;;;;;;;;;;;;;;;;;;;;;;;;;;;;;;;;;;;;;;;;;;;;;;;;;
node;274678779;47.5258531;7.6037741;fuel;SOCAR;yes;SOCAR Energy Switzerland;;Q1622293;SOCAR Münchenstein;;en:SOCAR;;yes;yes;;;Münchenstein;43;4142;Bruderholzstrasse;Münchenstein;;;;;https://www.socarenergy.ch/;;;;;;;;;CH;;;;;;;;;;;;;;;;;;;;;;;;;;;;;;;;;;;;;;;;;;;;;;;;;;;;;;;;;;;;;;;;;;;;;;;;;;;;;;;;;;;;;;;;;;;;;;;;;;;;;;;;;;;;;;;;;;;;;;;;;;;;;;;;;;;;;;;;;;;;;;;;;;;;;;;;;;;;;;;;;;;;
node;274716746;47.4236549;7.5047201;fuel;;yes;;;;Ecostop Tankstelle;;;;yes;;;;Laufen;48;4242;Baselstrasse;;;;;;https://www.ecostop.ch/;;;;;;;;;CH;;;;;;;;;;;;;;;;;;;;;;;;;;;;;;;;;;;;;;;;;;;;;;;;;;;;;;;1;;;;;;;;;;;;;;;;;;;;;;;;;;;;;;;;;;;;;;;;;;;;;;;;;;;;;;;;;;;;;;;;;;;;;;;;;;;;;;;;;;;;;;;;;;;;;;;;;;;;;;;;;;;;;
node;274815548;47.2466719;8.4610784;fuel;Avia;;Karl Graf Automobile AG;;Q300147;Avia Zürichstrasse;;de:Avia International;;;;;;Mettmenstetten;30;8932;Zürichstrasse;;;;;yes;;;;;;;;;;;;;;;;;;;;;;;;;;;;;;;;;;;;;;;;;;;;;;;;;;;;;;;;;;;;;;;;;;;;;;;;;;;;;;;;;;;;;;;;;;;;;;;;;;;;;;;;;;;;;;;;;;;;;;;;;;;;;;;;;;;;;;;;;;;;;;;;;;;;;;;;;;;;;;;;;;;;;;;;;;;;;;
node;274978894;47.4832546;7.5461208;fuel;Avia;;;;Q300147;AVIA;24/7;;;;;;;;;;;;;;;;;;;;;;;;;;;;;;;;;;;;;;;;;;;;;;;;;;;;;;;;;;;;;;;;;;;;;;;;;;;;;;;;;;;;;;;;;;;;;;;;;;;;;;;;;;;;;;;;;;;;;;;;;;;;;;;;;;;;;;;;;;;;;;;;;;;;;;;;;;;;;;;;;;;;;;;;;;;;;;;;;;;;;;;;;;;;;
node;274980462;47.2130399;8.3637786;fuel;;;;;;;;;;;;;;;;;;;;;;;;;;;;;;;;;;;;;;;;;;;;;;;;;;;;;;;;;;;;;;;;;;;;;;;;;;;;;;;;;;;;;;;;;;;;;;;;;;;;;;;;;;;;;;;;;;;;;;;;;;;;;;;;;;;;;;;;;;;;;;;;;;;;;;;;;;;;;;;;;;;;;;;;;;;;;;;;;;;;;;;;;;;;;;;;;;;;
node;274980463;47.2980447;8.3164949;fuel;Shell;yes;Migrol;;Q154950;Migrol Service Boswil;;;;yes;;;;Boswil;8;5623;Muristrasse;Boswil;;;;;https://www.migrol.ch/de/;;yes;;Migrol Boswil;;;;;;;;;;;;;;;;;;;;;;;;;;;;;;;;;;;;;;;;;;;;;;;;;;;;;;;;;;;;;;;;;;;;;;;;;;;;;;;;;;;;;;;;;;;;;;;;;;;;;;;;;;;;;;;;;;;;;;;;;;;;;;;;;;;;;;;;;;;;;;;;;;;;;;;;;;;;;;;;;;;;;;;;;
node;274980567;47.3115597;8.2467212;fuel;;;;;;;;;;;;;;;;;;;;;;;;;;;;;;;;;;;;;;;;;;;;;;;;;;;;;;;;;;;;;;;;;;;;;;;;;;;;;;;;;;;;;;;;;;;;;;;;;;;;;;;;;;;;;;;;;;;;;;;;;;;;;;;;;;;;;;;;;;;;;;;;;;;;;;;;;;;;;;;;;;;;;;;;;;;;;;;;;;;;;;;;;;;;;;;;;;;;
node;275422339;46.9454893;7.4712058;fuel;Shell;;Ostring Garage Lack AG;;Q110716465;Shell;24/7;;;;;;;;;;;;;;;;http://www.ostring-garage.ch;;;;Tankstelle Ostring Garage;;;;;;;;;;;;;;;;;;;;;;;;;;;;;;;;;;;;;;;;;;;;;;;;;;;;;+41 31 3562929;;;;;;;;Gantrischstrasse 44, 3006 Bern;;;;;;;;;;;;;;;;;;;;;;;;;;;;;;;;;;;;;;;;;;;;;;;;;;;;;;;;;;;;;;;;;;;;;;;;;;;;;;;;;;;;;;;;;;;;;;;;;;;;;;;;;;;;
node;276021507;47.0527663;6.7337075;fuel;;;;;;;;;;;;;Potlatch 0.9c;;;;;;;;;;;;;;;;;;;;;;;;;;;;;;;;;;;;;;;;;;;;;;;;;;;;;;;;;;;;;;;;;;;;;;;;;;;;;;;;;;;;;;;;;;;;;;;;;;;;;;;;;;;;;;;;;;;;;;;;;;;;;;;;;;;;;;;;;;;;;;;;;;;;;;;;;;;;;;;;;;;;;;;;;;;;;;;;;;;;;;;
node;276047520;47.1462267;9.5011305;fuel;;;BP;;;;;;;;;;;;;;;;;;;;;;;;;;;;;;;;;;;;;;;;;;;;;;;;;;;;;;;;;;;;;;;;;;;;;;;;;;;;;;;;;;;;;;;;;;;;;;;;;;;;;;;;;;;;;;;;;;;;;;;;;;;;;;;;;;;;;;;;;;;;;;;;;;;;;;;;;;;;;;;;;;;;;;;;;;;;;;;;;;;;;;;;;;;;;;;;;
node;276047521;47.145919;9.5003844;fuel;;;BP;;;;;;;;;;;;;;;;;;;;;;;;;;;;;;;;;;;;;;;;;;;;;;;;;;;;;;;;;;;;;;;;;;;;;;;;;;;;;;;;;;;;;;;;;;;;;;;;;;;;;;;;;;;;;;;;;;;;;;;;;;;;;;;;;;;;;;;;;;;;;;;;;;;;;;;;;;;;;;;;;;;;;;;;;;;;;;;;;;;;;;;;;;;;;;;;;
node;276068551;47.3896573;7.3688517;fuel;;;;;;;;;;;;;Potlatch 0.9c;;;;;;;;;;;;;;;;;;;;;;;;;;;;;;;;;;;;;;;;;;;;;;;;;;;;;;;;;;;;;;;;;;;;;;;;;;;;;;;;;;;;;;;;;;;;;;;;;;;;;;;;;;;;;;;;;;;;;;;;;;;;;;;;;;;;;;;;;;;;;;;;;;;;;;;;;;;;;;;;;;;;;;;;;;;;;;;;;;;;;;;
node;276414834;47.1985651;7.7869265;fuel;;;;;;Garage Brunnbach;;;;;;;;;;;;;;;;;;;;;;;;;no;;;;;;;;;;;;;;;;;;;;;;;;;;;;;;;;;;;;;;;;;;;;;;;;;;;;;;;;;;;;;;;;;;;;;;;;;;;;;;;;;;;;;;;;;;;;;;;;;;;;;;;;;;;;;;;;;;;;;;;;;;;;;;;;;;;;;;;;;;;;;;;;;;;;;;;;;;;;;;;;;;;;;
node;277469389;47.7030543;8.6453087;fuel;SOCAR;yes;SOCAR Energy Switzerland;;Q1622293;SOCAR Gruben;24/7;;;yes;yes;;;Schaffhausen;80;8200;Grubenstrasse;Schaffhausen Gruben;;;;;https://www.socarenergy.ch/;;;;;;;;;;;;;;;;;;;;;;;;;;;;;;;;;;;;;;;;;;;;;;;;;;;;;;;;;;;;;;;;;;;;;;;;;;;;;;;;;;;;;;;;;;;;;;;;;;;;;;;;;;;;;;;;;;;;;;;;;;;;;;;;;;;;;;;;;;;;;;;;;;;;;;;;;;;;;;;;;;;;;;;;;;;;;
node;277755862;47.1201627;9.056737;fuel;BP;;;;;;;;;;;;;;;;;;;;;;;;;;;;;;;;;;;;;;;;;;;;;;;;;;;;;;;;;;;;;;;;;;;;;;;;;;;;;;;;;;;;;;;;;;;;;;;;;;;;;;;;;;;;;;;;;;;;;;;;;;;;;;;;;;;;;;;;;;;;;;;;;;;;;;;;;;;;;;;;;;;;;;;;;;;;;;;;;;;;;;;;;;;;;;;;;;;
node;278205001;47.2295962;8.8437234;fuel;SOCAR;yes;SOCAR Energy Switzerland;;Q1622293;SOCAR Jona;;en:SOCAR;no;yes;yes;;;Jona;84;8645;St. Gallerstrasse;Jona;;;;;https://www.socarenergy.ch/;;;;;;;;;;;;;;;;;;;;;;;;;;;;;;;;;;;;;;;;;;;;;;;;;;;;;;;;;;;;;;;;;;;;;;;;;;;;;;;;;;;;;;;;;;;;;;;;;;;;;;;;;;;;;;;;;;;;;;;;;;;;;;;;;;;;;;;;;;;;;;;;;;;;;;;;;;;;;;;;;;;;;;;;;;;;;
node;278205018;47.2969244;8.8399034;fuel;Avia;yes;Avia Osterwalder Zürich;;Q300147;Avia;;;;yes;yes;;;Hinwil;40;8340;Dürntnerstrasse;Hinwil Dürntnerstrasse;;;;yes;;;;;;;;;;;;;;;;;;;;;;;;;;;;;;;;;;;;;;;;;;;;;;;;;;;;;;;;;;;;;;;;;;;;;;;;;;;;;;;;;;;;;;;;;;;;;;;;;;;;;;;;;;;;;;;;;;;;;;;;;;;;;;;;;;;;;;;;;;;;;;;;;;;;;;;;;;;;;;;;;;;;;;;;;;;;;;
node;278232271;46.6047314;6.5270144;fuel;Eni;;;;Q565594;Eni;;;;;;;;;;;;;;;;;;;;;;;;;;;;;;;;;;;;;;;;;;;;;;;;;;;;;;;;;;;;;;;;;;;;;;;;;;;;;;;;;;;;;;;;;;;;;;;;;;;;;;;;;;;;;;;;;;;;;;;;;;;;;;;;;;;;;;;;;;;;;;;;;;;;;;;;;;;;;;;;;;;;;;;;;;;;;;;;;;;;;;;;;;;;;;
node;278792162;46.9369824;7.4755179;fuel;Migrol;yes;Migrol;;Q1747771;Migrol;;de:Migrol;yes;yes;yes;;;Bern;1;3006;Egghölzlistrasse;Bern Egghölzli;;;;;https://www.migrol.ch/de/;;;;Migrol Egghölzli;;;;;;;;;;;;;;;;;;;;;;;;;;;;;;;;;;;;;;;;;;;;;;;;;;;;;;;;;;;;;;;;;;;;;;;;;;;;;;;;;;;;;;;;;;;;;;;;;;;;;;;;;;;;;;;;;;;;;;;;;;;;;;;;;;;;;;;;;;;;;;;;;;;;;;;;;;;;;;;;;;;;;;;;;
node;279311963;46.5973608;6.5430462;fuel;;;;yes;;;;;;;;;;;;;;;;;;;;;;;;;;;;;;;;;;;;;;;;;;;;;;;;;;;;;;;;;;;;;;;;;;;;;;;;;;;;;;;;;;;;;;;;;;;;;;;;;;;;;;;;;;;;;;;;;;;;;;;;;;;;;;;;;;;;;;;;;;;;;;;;;;;;;;;;;;;;;;;;;;;;;;;;;;;;;;;;;;;;;;;;;;;;;;;;
node;279370610;47.4890282;8.28805;fuel;;;;;;Freie Tankstelle Velo Meier;;;;;;;;;;;;;;;;;;;;;;;;;;;;;;;;;;;;;;;;;;;;;;;;;;;;;;;;;;;;;;;;;;;;;;;;;;;;;;;;;;;;;;;;;;;;;;;;;;;;;;;;;;;;;;;;;;;;;;;;;;;;;;;;;;;;;;;;;;;;;;;;;;;;;;;;;;;;;;;;;;;;;;;;;;;;;;;;;;;;;;;;;;;;;;
node;279909825;47.2040191;8.7641063;fuel;Shell;;Shell (Switzerland);;Q110716465;Shell Freienbach;;en:Royal Dutch Shell;yes;;;;;Freienbach;149;8807;Kantonsstrasse;Freienbach Grüze;;;;;https://find.shell.com/ch/fuel/10023387-shell-gruetze/de_CH;;;;;;;;;;;;;;;;;;;;;;;;;;;;;;;;;;;;;;;;;;;;;;;;;;;;;;;;;;;;;;;;;;;;;;;;;;;;;;;;;;;;;;;;;;;;;;;;;;;;;;;;;;;;;;;;;;;;;;;;;;;;;;;;;;;;;;;;;;;;;;;;;;;;;;;;;;;;;;;;;;;;;;;;;;;;;
node;280348868;47.5911033;8.2177378;fuel;;;;;;;;;;;;;;;;;;;;;;;;;;;;;;;;;;;;;;;;;;;;;;;;;;;;;;;;;;;;;;;;;;;;;;;;;;;;;;;;;;;;;;;;;;;;;;;;;;;;;;;;;;;;;;;;;;;;;;;;;;;;;;;;;;;;;;;;;;;;;;;;;;;;;;;;;;;;;;;;;;;;;;;;;;;;;;;;;;;;;;;;;;;;;;;;;;;;
node;280528115;46.9546702;7.4332051;fuel;Migrol;yes;Migrol;no;Q1747771;Migrol;24/7;de:Migrol;yes;yes;;2023-06-23;;;;;;;;;;;;;;;;;;;;;;;;;;2.3;;;;;;;;;;;;;;;;;;;;;;;;;;;;;;;;;;;;;;;;;;;;;;;;;;;;;;;;;;;;;;;;;;;;;;;;;;;;;;;;;;;;;;;;;;;;;;;;;;;;;;;;;;;;;;;;;;;;;;;;;;;;;;;;;;;;;;;;;;;;;;;;;;;;;;;;;;;;;;
node;281282674;46.2597266;6.947662;fuel;BP;;BP;;Q152057;BP;;;;;;;;Monthey;19;1870;Avenue de l'Europe;;;;;;;;;;;;;;;;;;;;;;;;;;;;;;;;;;;;;;;;;;;;;;;;;;;;;;;;;;;;;;;;;;;;;;;;;;;;;;;;;;;;;;;;;;;;;;;;;;;;;;;;;;;;;;;;;;;;;;;;;;;;;;;;;;;;;;;;;;;;;;;;;;;;;;;;;;;;;;;;;;;;;;;;;;;;;;;;;;;
node;281283867;46.3018161;6.978265;fuel;;;BP;;;BP;;;;;;;;;;;;;;;;;;;;;;;;;;;;;;;;;;;;;;;;;;;;;;;;;;;;;;;;;;;;;;;;;;;;;;;;;;;;;;;;;;;;;;;;;;;;;;;;;;;;;;;;;;;;;;;;;;;;;;;;;;;;;;;;;;;;;;;;;;;;;;;;;;;;;;;;;;;;;;;;;;;;;;;;;;;;;;;;;;;;;;;;;;;;;;
node;281284025;46.3935598;6.921506;fuel;Shell;;;;Q110716465;Shell;;en:Royal Dutch Shell;;;;;;;;;;;;;;;;;;;;;;;;;;;;;;;;;;;;;;;;;;;;;;;;;;;;;;;;;;;;;;;;;;;;;;;;;;;;;;;;;;;;;;;;;;;;;;;;;;;;;;;;;;;;;;;;;;;;;;;;;;;;;;;;;;;;;;;;;;;;;;;;;;;;;;;;;;;;;;;;;;;;;;;;;;;;;;;;;;;;;;;;;;;;
node;281284791;46.1111272;7.077013;fuel;Tamoil;yes;Tamoil;;Q706793;Station Tamoil Quartz;;en:Tamoil;;yes;yes;;;;;;;;;;;yes;;;;;;;;;;;;;;;;;;;;;;;;;;;;;;;;;;;;;;;;;;;;;;;;;;;;;;;612820446786121;;;;;;;;;;;;2019-06-10;;;;;;;;;;;;;;;;;;;;;;;;;;;;;;;;;;;;;;;;;;;;;;;;;;;;;;;;;;;;;;;;;;;;;;;;;;;;;;;;;;;;;;;;;;;;;;;;;;;;;;;;;;;
node;281286146;46.109953;7.0773462;fuel;;yes;ECSA Energy SA - Station de service BP;;;Station BP Martigny;Mo-Su 06:00-22:00;;no;yes;yes;;;;;;;;;;;yes;;;;058 211 96 82;;;;;;;;;;;;;;;;;;;;;;;;;;;;;;;;;;;;;;;;;;;;;;;;;;;;;;;;;;;;;;;;yes;;;;;;;;;;;;;;;;;;;;;;;;;;;;;;;;;;;;;;;;;;;;;;;;;;;;;;;;;;;;;;;;;;;;;;;;;;;;;;;;;;;;;;;;;;;;;;;;;;;;;;;;;;
node;281290981;46.2458224;6.9348951;fuel;;;BP;;;;;;;;;;;;;;;;;;;;;;;;;;;;;;;;;;;;;;;;;;;;;;;;;;;;;;;;;;;;;;;;;;;;;;;;;;;;;;;;;;;;;;;;;;;;;;;;;;;;;;;;;;;;;;;;;;;;;;;;;;;;;;;;;;;;;;;;;;;;;;;;;;;;;;;;;;;;;;;;;;;;;;;;;;;;;;;;;;;;;;;;;;;;;;;;;
node;281291631;46.2362395;6.9265364;fuel;;;Shell;;;Garage Defago - Toyota;;;;;;;;;;;;;;;;;;;;;;;;;;;;;;;;;;;;;;;;;;;;;;;;;;;;;;;;;;;;;;;;;;;;;;;;;;;;;;;;;;;;;;;;;;;;;;;;;;;;;;;;;;;;;;;;;;;;;;;;;;;;;;;;;;;;;;;;;;;;;;;;;;;;;;;;;;;;;;;;;;;;;;;;;;;;;;;;;;;;;;;;;;;;;;
node;281571963;46.9354032;7.4801601;fuel;Ruedi Rüssel;;;;;;;;;;;;;;;;;;;;;;;;;;;;;;;;;;;;;;;;;;;;;;;;;;;;;;;;;;;;;;;;;;;;;;;;;;;;;;;;;;;;;;;;;;;;;;;;;;;;;;;;;;;;;;;;;;;;;;;;;;;;;;;;;;;;;;;;;;;;;;;;;;;;;;;;;;;;;;;;;;;;;;;;;;;;;;;;;;;;;;;;;;;;;;;;;;;
node;281761432;46.898611;8.2506888;fuel;Socar;;Socar;;Q1622293;Socar;;en:SOCAR;;;;;;;;;;;;;;;;;;;;;;;;;;;;;;;;;;;;;;;;;;;;;;;;;;;;;;;;;;;;;;;;;;;;;;;;;;;;;;;;;;;;;;;;;;;;;;;;;;;;;;;;;;;;;;;;;;;;;;;;;;;;;;;;;;;;;;;;;;;;;;;;;;;;;;;;;;;;;;;;;;;;;;;;;;;;;;;;;;;;;;;;;;;;
node;282180757;47.4009426;7.5424953;fuel;;;AGIP;;;Remo Schmid;;;;;;;Potlatch 0.10a;;;;;;;;;;;;;;;;;;;;;;;;;;;;;;;;;;;;;;;;;;;;;;;;;;;;;;;;;;;;;;;;;;;;;;;;;;;;;;;;;;;;;;;;;;;;;;;;;;;;;;;;;;;;;;;;;;;;;;;;;;;;;;;;;;;;;;;;;;;;;;;;;;;;;;;;;;;;;;;;;;;;;;;;;;;;;;;;;;;;;;;
node;282439888;46.9732785;7.485325;fuel;;yes;;;;Tamoil;;;;yes;no;;;;;;;;;;;;;;no;;;;;;;;;;;;;;;;;;;;;;;;;;;;;;;;;;;;;;;;;;;;;;;;;;;;;;;;;;;;;;;;;;;;;;;;;;;;;;;;;;;;;;;;;;;;;;;;;;;;;;;;;;;;;;;;;;;;;;;;;;;;;;;;;;;;;;;;;;;;;;;;;;;;;;;;;;;;;;;;;;;;;;;;;;;
node;282458392;47.2041777;8.9493651;fuel;;;;;;;;;;;;;;;;;;;;;;;;;;;;;;;;;;;;;;;;;;;;;;;;;;;;;;;;;;;;;;;;;;;;;;;;;;;;;;;;;;;;;;;;;;;;;;;;;;;;;;;;;;;;;;;;;;;;;;;;;;;;;;;;;;;;;;;;;;;;;;;;;;;;;;;;;;;;;;;;;;;;;;;;;;;;;;;;;;;;;;;;;;;;;;;;;;;;
node;283045787;47.4079233;7.5421063;fuel;;;;;;Garage Lantz;;;;;;;Potlatch 0.10b;;;;;;;;;;;;;;;;;;;;;;;;;;;;;;;;;;;;;;;;;;;;;;;;;;;;;;;;;;;;;;;;;;;;;;;;;;;;;;;;;;;;;;;;;;;;;;;;;;;;;;;;;;;;;;;;;;;;;;;;;;;;;;;;;;;;;;;;;;;;;;;;;;;;;;;;;;;;;;;;;;;;;;;;;;;;;;;;;;;;;;;
node;283181019;47.3860523;8.5319464;fuel;Migrol;yes;Migrol;;Q1747771;Migrol Service Sihlquai;24/7;;yes;yes;yes;2024-10-19;;Zürich;155;8005;Sihlquai;Zürich Sihlquai;;;;;https://www.migrol.ch/de/;;;;Migrol Sihlquai;;;;;CH;yes;yes;yes;yes;yes;;;;;;;;;;;;;;;;;;;;;;;;;;;;;yes;;;;;;;;;;;;;;;;;;;;;;;;;;;;;;;;;;;;;;;;;;;;;;;;;;;;;;;;;;;;;;;;;;;;;;;;;;;;;;;;;;;;;;;;;;;;;;;;;;;;;;;;;;;;;;;;;;;;;;;;;;;;;;;;;;
node;283201896;47.2018784;8.790165;fuel;BP;;;;Q152057;BP;;en:BP;yes;;;;;Pfäffikon (SZ);136;8808;Churerstrasse;;;;;;;;;;;;;;;;;;;;;;;;;;;;;;;;;;;;;;;;;;;;;;;;;;;;;;;;;;;;;;;;;;;;;;;;;;;;;;;;;;;;;;;;;;;;;;;;;;;;;;;;;;;;;;;;;;;;;;;;;;;;;;;;;;;;;;;;;;;;;;;;;;;;;;;;;;;;;;;;;;;;;;;;;;;;;;;;;;;
node;283213549;46.9368196;7.432424;fuel;Eni;yes;;;Q565594;Eni;;;yes;yes;;;;;;;;;;;;;;;;;;;;;;;;;;;;;;;;;;;;;;;;;;;;;;;;;;;;;;;;;;;;;;;;;;;;;;;;;;;;;;;;;428;;;;;;;;;;;;;;;;;;;;;;;;;;;;;;;;;;;;;;;;;;;;;;;;;;;;;;;;;;;;;;;;;;;;;;;;;;;;;;;;;;;;;;;;;;;;;;;;;;;;;;;;;
node;284931676;46.2304848;6.0849653;fuel;Shell;;Shell;;Q154950;Shell;;en:Royal Dutch Shell;;;;;;Meyrin;45;;Avenue de Mategnin;;;;;;;;;;;;;;;;;;;;;;;;;;;;;;;;;;;;;;;;;;;;;;;;;;;;;;;;;;;;;;;;;;;;;;;;;;;;;;;;;;;;;;;;;;;;;;;;;;;;;;;;;;;;;;;;;;;;;;;;;;;;;;;;;;;;;;;;;;;;;;;;;;;;;;;;;;;;;;;;;;;;;;;;;;;;;;;;;;;
node;286048215;47.1937469;7.4053771;fuel;SOCAR;;SOCAR Energy Switzerland;;Q1622293;SOCAR Grenchen;;;;;;;;Grenchen;116;2540;Solothurnstrasse;Grenchen;;;;;https://www.socarenergy.ch/;;;;;;;;;;;;;;;;;;;;;;;;;;;;;;;;;;;;;;;;;;;;;;;;;;;;;;;;;;;;;;;;;;;;;;;;;;;;;;;;;;;;;;;;;;;;;;;;;;;;;;;;;;;;;;;;;;;;;;;;;;;;;;;;;;;;;;;;;;;;;;;;;;;;;;;;;;;;;;;;;;;;;;;;;;;;;
node;286056220;47.3292879;8.2023524;fuel;;yes;AGIP;yes;;Feldgarage;;;;yes;yes;;;;;;;;;;;;;;;;;;;;car_repair;;;;;;;;;;;;;;;;;;;;;;;;;;;;;;;;;;;;;;;;;;;;;;;;;;;;;;;;;;;;;;;;;;;;;;;;;;;;;;;;;;;;;;;;;;;;;;;;;;;;;;;;;;;;;;;;;;;;;;;;;;;;;;;;;;;;;;;;;;;;;;;;;;;;;;;;;;;;;;;;;;;;;
node;286059665;47.1857372;8.454374;fuel;BP;;Imholz Autohaus;;;;;;;;;;;;;;;;;;;;;;;;;;;;;;;;;;;;;;;;;;;;;;;;;;;;;;;;;;;;;;;;;;;;;;;;;;;;;;;;;;;;;;;;;;;;;;;;;;;;;;;;;;;;;;;;;;;;;;;;;;;;;;;;;;;;;;;;;;;;;;;;;;;;;;;;;;;;;;;;;;;;;;;;;;;;;;;;;;;;;;;;;;;;;;;;;
node;286059992;47.7480618;8.4579156;fuel;;;;;;;;;;;;;;;;;;;;;;;;;;;;;;;;;;;;;;;;;;;;;;;;;;;;;;;;;;;;;;;;;;;;;;;;;;;;;;;;;;;;;;;;;;;;;;;;;;;;;;;;;;;;;;;;;;;;;;;;;;;;;;;;;;;;;;;;;;;;;;;;;;;;;;;;;;;;;;;;;;;;;;;;;;;;;;;;;;;;;;;;;;;;;;;;;;;;
node;286059993;47.7474281;8.4594036;fuel;;;;;;;;;;;;;;;;;;;;;;;;;;;;;;;;;;;;;;;;;;;;;;;;;;;;;;;;;;;;;;;;;;;;;;;;;;;;;;;;;;;;;;;;;;;;;;;;;;;;;;;;;;;;;;;;;;;;;;;;;;;;;;;;;;;;;;;;;;;;;;;;;;;;;;;;;;;;;;;;;;;;;;;;;;;;;;;;;;;;;;;;;;;;;;;;;;;;
node;286478967;46.7926449;7.5184156;fuel;;;;;;;;;;;;;;;;;;;;;;;;;;;;;;;;;;;;;;;;;;;;;;;;;;;;;;;;;;;;;;;;;;;;;;;;;;;;;;;;;;;;;;;;;;;;;;;;;;;;;;;;;;;;;;;;;;;;;;;;;;;;;;;;;;;;;;;;;;;;;;;;;;;;;;;;;;;;;;;;;;;;;;;;;;;;;;;;;;;;;;;;;;;;;;;;;;;;
node;286770232;46.752103;8.0483903;fuel;Socar;;Socar;;Q1622293;Socar;Mo-Sa 07:15-21:00, Su,PH 08:00-21:00;en:SOCAR;;;;;;;;;;;;;;;;;;;;;;;;;;;;;;;;;;;;;;;;;;;;;;;;;;;;;;;;;;;;;;;;;;;;;;;;;;;;;;;;;;;;;;;;;;;;;;;;;;;;;;;;;;;;;;;;;;;;;;;;;;;;;;;;;;;;;;;;;;;;;;;;;;;;;;;;;;;;;;;;;;;;;;;;;;;;;;;;;;;;;;;;;;;;
node;286782225;47.7235876;8.6397406;fuel;Avia;;;;Q300147;Avia;;;;;;;;;;;;;;;;;;;;;;;;;;;;;;;;;;;;;;;;;;;;;;;;;;;;;;;;;;;;;;;;;;;;;;;480806013344525;;;;;;;;;;;;;;;;;;;;;;;;;;;;;;;;;;;;;;;;;;;;;;;;;;;;;;;;;;;;;;;;;;;;;;;;;;;;;;;;;;;;;;;;;;;;;;;;;;;;;;;;;;;;;;;;;;;;;;;
node;286879558;46.8866278;7.3890744;fuel;Agrola;yes;Landi;;Q397351;Agrola;;de:Agrola;;;;;;;;;;;;;;;;;;;;;;;;;;;;;;;;;;;;;;;;;;;;;;;;;;;;;;;;;;;;;;;;;;;;;;;;;;;;;;;;;;yes;;;;;;;;;;;;;;;;;;;;;;;;;;;;;;;;;;;;;;;;;;;;;;;;;;;;;;;;;;;;;;;;;;;;;;;;;;;;;;;;;;;;;;;;;;;;;;;;;;;;;;;;;;
node;286879677;46.9250194;7.416907;fuel;Ruedi Rüssel;yes;;yes;Q111725154;Ruedi Rüssel;"Mo-Fr 06:00-22:00; PH,Sa,Su 07:00-22:00";;;yes;yes;;;;;;;;;;;;;;;;;;;;;;;;;;;;;;;;;;;;;;;;;;;;;;;;;;;;;;;;;;;;;;;;;;;;;;;;;;;;;;;;;;;;;;;;;;;;;;;;;;;;;;;;;;;;;;;;;;;;;;;;;;;;;;;;;;;;;;;;;;;;;;;;;;;;;;;;;;;;;;;;;;;;;;;;;;;;;;;;;;;;;;;;;
node;287320953;47.1023815;6.8333999;fuel;BP;;;;;BP Shop;;;;;;;;;;;;;;;;;;;;;;;;;yes;;;;;;;;;;;;;;;;;;;;;;;;;;;;;;;;;;;;;;;;;;;;;;;;;;;;;;;;;;;;;;;;;;;;;;;;;;;;;;;;;;;;;;;;;;;;;;;;;;;;;;;;;;;;;;;;;;;;;;;;;;;;;;;;;;;;;;;;;;;;;;;;;;;;;;;;;;;;;;;;;;;;;
node;287630914;47.1668796;9.4664798;fuel;;;;yes;;Coop;"Mo-Sa 05:30-22:00; Su 07:00-21:00";;yes;;;2024-09-20;;;;;;;;;;;;;;;;;;;;;;;;;;;;;;;;;;;;;;;;;;;;;;;;;;;;;;;;;;;;;;;;;;;;;;;;;;;;;;;;2024-09-20;;;;;;;;;;;;;;;;;;;;;;;;;;;;;;;;;;;;;;;;;;;;;;;;;;;;;;;;;;;;;;;;;;;;;;;;;;;;;;;;;;;;;;;;;;;;;;;;;;;;;;;;
node;288557316;47.4898013;7.5896372;fuel;Avia;;Avia;;Q300147;Avia;;;yes;;;;;;;;;;;;;;;;;;;;;;;;;;;;;;;;;;;;;;;;;;;;;;;;;;;;;;;;;;;;;;;;;;;;;;;;;;;;;;;;;;;;;;;;;;;;;;;;;;;;;;;;;;;;;;;;;;;;;;;;;;;;;;;;;;;;;;;;;;;;;;;;;;;;;;;;;;;;;;;;;;;;;;;;;;;;;;;;;;;;;;;;;;;
node;288740214;46.7680292;7.3523004;fuel;;yes;P. Wyssmann;;;Riffenmatt Garage GmbH;;;;yes;;;;Riffenmatt;;3156;Kappelenfeld;;;;;;https://riffenmattgarage.ch;;;;;;;;;;;;;;;;;;;;;;;;;;yes;;;;;;;;;;;;;;;;;;;;;;;;;;;;;;;;;;;;;;;;;;;;;;;;;;;;;;;;;;;;;;;;;;;;;;;;;;;;;;;;;;;;;;;;;;;;;;;;;;;;;;;;;;;;;;;;;;;;;;;;;;;;;;;;;;;;;;;;;;;;;;;;;;;
node;290798270;46.9731324;7.438128;fuel;AVIA;yes;;;;;;;;yes;;;;;;;;;;;;;;;;;;;;;;;;;;;;;;;;;;;;;;;;;;;;;;;;;;;;;;;;;;;;;;;;;;;;;;;;;;;;;;;;;;;;;;;;;;;;;;;;;;;;;;;;;;;;;;;;;;;;;;;;;;;;;;;;;;;;;;;;;;;;;;;;;;;;;;;;;;;;;;;;;;;;;;;;;;;;;;;;;;;;;;;;;;
node;291415329;47.6550521;9.1647784;fuel;Socar;yes;SOCAR Energy Switzerland;yes;Q1622293;SOCAR Kreuzlingen;;en:SOCAR;no;yes;yes;2024-06-06;;Kreuzlingen;28;8280;Konstanzerstrasse;Kreuzlingen;;;;;https://www.socarenergy.ch/;;;+41 79 622 99 40;;;;;;CH;;;;;;;;;;;;;;;;2024-06-06;;;;;;;;;no;;;;;;;;;;;;;;;;;;;;;;;;;;;;;;;;;;;;;;;;;;;;;;;;;;;;;;;;;;;;;;;;;;;;;;;;;;;;;;;;;;;;;;;;;;;;;;;;;;;;;;;;;;;;;;;;;;;;;;;;;;;;;;;;;;;;;;;;;;;
node;291769933;46.7707841;7.1634028;fuel;;yes;;;;Garage du Tennis Marly SA;;;;yes;;;;;;;;;;;;;;;;;;;;;;;;;;;;;;;;;;;;;;;;;;;;;;;;;;;;;;;;;;;;;;;;;;;;;;+4126 436 15 60;;;;;;;;;;;;;dutennis@bluewin.ch;+4126 436 15 46;http://www.garage-du-tennis.ch/;;;;;;;;;;;;;;;;;;;;;;;;;;;;;;;;;;;;;;;;;;;;;;;;;;;;;;;;;;;;;;;;;;;;;;;;;;;;;;;;;;;;;;;;;;;;;;;;;;;;;
node;292331528;47.5600805;9.1320734;fuel;Agrola;;;;Q397351;Agrola;;de:Agrola;;;;;;;;;;;;;;;;;;;;;;;;;;;;;;;;;;;;;;;;;;;;;;;;;;;;;;;;;;;;;;;;;;;;;;;;;;;;;;;;;;;;;;;;;;;;;;;;;;;;;;;;;;;;;;;;;;;;;;;;;;;;;;;;;;;;;;;;;;;;;;;;;;;;;;;;;;;;;;;;;;;;;;;;;;;;;;;;;;;;;;;;;;;;
node;292341684;47.5501032;9.1527304;fuel;Avia;;;;;;;;;;;;;;;;;;;;;;;;;;;;;;;;;;;;;;;;;;;;;;;;;;;;;;;;;;;;;;;;;;;;;;;;;;;;;;;;;;;;;;;;;;;;;;;;;;;;;;;;;;;;;;;;;;;;;;;;;;;;;;;;;;;;;;;;;;;;;;;;;;;;;;;;;;;;;;;;;;;;;;;;;;;;;;;;;;;;;;;;;;;;;;;;;;;
node;292362274;46.7558732;7.1478931;fuel;;;Mini prix;;;Mini prix;;;;;;;;;;;;;;;;;;;;;;;;;;;;;;;;;;;;;;;;;;;;;;;;;;;;;;;;;;;;;;;;;;;;;;;;;;;;;;;;;;;;;;;;;;;;;;;;;;;;;;;;;;;;;;;;;;;;;;;;;;;;;;;;;;;;;;;;;;;;;;;;;;;;;;;;;;;;;;;;;;;;;;;;;;;;;;;;;;;;;;;;;;;;;;
node;292507777;46.7802595;6.6533462;fuel;Shell;;Shell;;Q154950;Garage Bel-Air;;en:Royal Dutch Shell;;;;;;;;;;;;;;;;;;;;;;;;;;;;;;;;;;;;;;;;;;;;;;;;;;;;;;;;;;;;;;;;;;;;;;;;;;;;;;;;;;;;;;;;;;;;;;;;;;;;;;;;;;;;;;;;;;;;;;;;;;;;;;;;;;;;;;;;;;;;;;;;;;;;;;;;;;;;;;;;;;;;;;;;;;;;;;;;;;;;;;;;;;;;
node;292626676;46.4814865;6.7746074;fuel;;;BP;;;;;;;;;;;;;;;;;;;;;;;;;;;;;;;;;;;;;;;;;;;;;;;;;;;;;;;;;;;;;;;;;;;;;;;;;;;;;;;;;;;;;;;;;;;;;;;;;;;;;;;;;;;;;;;;;;;;;;;;;;;;;;;;;;;;;;;;;;;;;;;;;;;;;;;;;;;;;;;;;;;;;;;;;;;;;;;;;;;;;;;;;;;;;;;;;
node;292626689;46.4825065;6.7758542;fuel;;;;;;;;;;;;;;;;;;;;;;;;;;;;;;;;;;;;;;;;;;;;;;;;;;;;;;;;;;;;;;;;;;;;;;;;;;;;;;;;;;;;;;;;;;;;;;;;;;;;;;;;;;;;;;;;;;;;;;;;;;;;;;;;;;;;;;;;;;;;;;;;;;;;;;;;;;;;;;;;;;;;;;;;;;;;;;;;;;;;;;;;;;;;;;;;;;;;
node;292626690;46.4831227;6.7753449;fuel;;;;;;;;;;;;;;;;;;;;;;;;;;;;;;;;;;;;;;;;;;;;;;;;;;;;;;;;;;;;;;;;;;;;;;;;;;;;;;;;;;;;;;;;;;;;;;;;;;;;;;;;;;;;;;;;;;;;;;;;;;;;;;;;;;;;;;;;;;;;;;;;;;;;;;;;;;;;;;;;;;;;;;;;;;;;;;;;;;;;;;;;;;;;;;;;;;;;
node;293011493;47.5601728;8.4925388;fuel;Shell;;Shell;;;Shell;;;;;;;;;;;;;;;;;;;;;;;;;;;;;;;;;;;;;;;;;;;;;;;;;;;;;;;;;;;;;;;;;;;;;;;;;;;Shell;;;;;;;;;;;;;;;;;;;;;;;;;;;;;;;;;;;;;;;;;;;;;;;;;;;;;;;;;;;;;;;;;;;;;;;;;;;;;;;;;;;;;;;;;;;;;;;;;;;;;;;;;;;;;;;;;;;
node;293030011;47.3450854;8.7019951;fuel;;yes;;;;Lenzlinger Söhne AG;24/7;;yes;yes;yes;;;;;;;;;;;;;;;;;;;;;;;;;;;;;;;;;;;;;;;;;;;;;;;;;;;;;;;;;;;;;;;;;;;;;;;;;;;;;;;;;;;;;;;;;;;;;;;;;;;;;;;;;;;;;;;;;;;;;;;;;;;;;;;;;;;;;;;;;;;;;;;;;;;;;;;;;;;;;;;;;;;;;;;;;;;;;;;;;;;;;;;;;
node;293254091;46.818486;8.3979432;fuel;Shell;yes;Shell;;Q110716465;Shell;;;;yes;yes;;;Engelberg;;6390;Engelbergerstrasse;;;;;yes;;;;;;;;;;;;;;;;2.7;;;;;;;;;;;;;;;;;;;;;;;;;;;;;;;;;;;;;;;;;;;;fuel;fuel;;;;;;;;;;;;;;;;;;;;;;;;;;;;;;;;;;;;;;;;;;;;;;;;;;;;;;;;;;;;;;;;;;;;;;;;;;;;;;;;;;;;;;;;;;;;;;;;;;;;;;;;;;;;;;;;;
node;293585451;47.4727471;7.7555382;fuel;Coop;;Coop Mineraloel;;;Coop Tankstelle;24/7;;yes;;;;;;;;;Lausen;;;;;;;;;Coop Tankstelle Lausen;;;;;;;;;;;;;;;;;;;;;;;;;;;;;;;;;;;;;;;;;;;;;;;;;;;;;;;;;;;;;;;;;;;;;;;;;;;;;;;;;;;;;;;;;;;;;;;;;;;;;;;;;;;;;;;;;;;;;;;;;;;;;;;;;;;;;;;;;;;;;;;;;;;;;;;;;;;;;;;;;;;;;;;;;
node;293609533;47.5285053;8.466666;fuel;Agrola;;;;;;;;;;;;;;;;;;;;;;;;;;;;;;;;;;;;;;;;;;;;;;;;;;;;;;;;;;;;;;;;;;;;;;;;;;;;;;;;;;;;;;;;;;;;;;;;;;;;;;;;;;;;;;;;;;;;;;;;;;;;;;;;;;;;;;;;;;;;;;;;;;;;;;;;;;;;;;;;;;;;;;;;;;;;;;;;;;;;;;;;;;;;;;;;;;;
node;294055540;47.1102304;8.3211384;fuel;Migrol;yes;Migrol;;Q1747771;Migrol Tankstelle Emmen;24/7;de:Migrol;;yes;yes;;;Emmen;;6032;;Emmen Waldibrücke;;;;yes;https://www.migrol.ch/de/;;;;Migrol Emmen;;;;no;;;;;;;;;;;;;;;;;;;;;;;;;;;;;;;;;yes;Garage Mathis;;;;;;;;;;;;;;;;;;;;;;;;;;;;;;;;;;;;;;;;;;;;;;;;;;;;;;;;;;;;;;;;;;;;;;;;;;;;;;;;;;;;;;;;;;;;;;;;;;;;;;;;;;;;;;;;;;;;;;;;;;;;;;;;;;;
node;294055589;47.1216181;8.3416496;fuel;Avia;;Avia;;Q300147;Avia;;;;;;;;;;;;;;;;;;;;;;;;;;;;;;;;;;;;;;;;;;;;;;;;;;;;;;;;;;;;;;;;;;;;;;;;;;;;;;;;;;;;;;;;;;;;;;;;;;;;;;;;;;;;;;;;;;;;;;;;;;;;;;;;;;;;;;;;;;;;;;;;;;;;;;;;;;;;;;;;;;;;;;;;;;;;;;;;;;;;;;;;;;;;;;
node;295747025;47.119605;7.2429595;fuel;;yes;Socar;;;Socar;;;;yes;yes;;;;;;;;;;;;;;;;;;;;yes;;;;;;;;;;;;;;;;;;;;;;;;;;;;;;;;;;;;;;;;;;;;;;;;;;;;;;;;;;;;;;;;;;;;;;;;;;;;;;;;;;;;;;;;;;;;;;;;;;;;;;;;;;;;;;;;;;;;;;;;;;;;;;;;;;;;;;;;;;;;;;;;;;;;;;;;;;;;;;;;;;;;;
node;296253069;47.0893332;6.8075691;fuel;Coop Pronto;yes;Coop;;;Coop Pronto;;;;yes;yes;;;La Chaux-de-Fonds;38-40;2300;Rue de la Fiaz;;;;;yes;;;;;;;;;;;;;;;;;;;;;;;;;;;;;;;;;;;;;;;;;;;;;;;;;;;;;;;;;;;;;;;;;;;;;;;;;;;;;;;;;;;;;;;;;;;;;;;;;;;;;;;;;;;;;;;;;;;;;;;;;;;;;;;;;;;;;;;;;;;;;;;;;;;;;;;;;;;;;;;;;;;;;;;;;;;;;;
node;296941470;47.2140841;8.7004828;fuel;Avia;;Avia Vereinigung;;;Avia;;;;;;;;;;;;;;;;;;;;;;;;;;;;;;;;;;;;;;;;;;;;;;;;;;;;;;;;;;;;;;;;;;;;;;;;;;;;;;;;;;;;;;;;;;;;;;;;;;;;;;;;;;;;;;;;;;;;;;;;;;;;;;;;;;;;;;;;;;;;;;;;;;;;;;;;;;;;;;;;;;;;;;;;;;;;;;;;;;;;;;;;;;;;;;
node;296990388;47.4275979;7.7714448;fuel;Migrol;yes;Migrol;;Q1747771;Migrol;24/7;de:Migrol;;yes;;;;Hölstein;15;4434;Hauptstrasse;Hölstein;;;;yes;https://www.migrol.ch/de/;;;;Migrol Hölstein;;;;no;CH;;;;;;;;;;;;;;;;;;;;;;;;;;;;;;;;yes;;;;;;;;;;;;;;;;;;;;;;;;;;;;;;;;;;;;;;;;;;;;;;;;;;;;;;;;;;;;;;;;;;;;;;;;;;;;;;;;;;;;;;;;;;;;;;;;;;;;;;;;;;;;;;;;;;;;;;;;;;;;;;;;;;;;
node;297027382;46.08591;7.509069;fuel;;;;;;;;;;;;;;;;;;;;;;;;;;;;;;;;;;;;;;;;;;;;;;;;;;;;;;;;;;;;;;;;;;;;;;;;;;;;;;;;;;;;;;;;;;;;;;;;;;;;;;;;;;;;;;;;;;;;;;;;;;;;;;;;;;;;;;;;;;;;;;;;;;;;;;;;;;;;;;;;;;;;;;;;;;;;;;;;;;;;;;;;;;;;;;;;;;;;
node;297070232;46.7848989;6.6332171;fuel;Esso;;Esso;no;Q867662;Garage Bouby-Rolls;;en:Esso;;;;;;;;;;;;;;;;;;;;;;;;;;;;;;;;;;;;;;;;;;;;;;;;;;;;;;;;;;;;;;;;;;;;;;;;;;;;;;;;;;;;;;;;;;;;;;;;;;;;;;;;;;;;;;;;;;;;;;;;;;;;;;;;;;;;;;;;;;;;;;;;;;;;;;;;;;;;;;;;;;;;;;;;;;;;;;;;;;;;;;;;;;;;
node;297302039;47.4070106;8.7269393;fuel;Shell;yes;;;Q110716465;Shell Illnau;;;yes;yes;;;;;;;;;;;;;;;;;;;;;;;;;;;;;;;;;;;;;;;;;;;;;;yes;;;;;;;;;;;;;;;;;;;;;;;;;;;;;;;;;;;;;;;;;;;;;;;;;;;;;;;;;;;;;;;;;;;;;;;;;;;;;;;;;;;;;;;;;;;;;;;;;;;;;;;;;;;;;;;;;;;;;;;;;;;;;;;;;;;;;;;;;;;;
node;297938369;46.4222373;6.2610444;fuel;;;Shell;;;;;;;;;;;;;;;;;;;;;;;;;;;;;;;;;;;;;;;;;;;;;;;;;;;;;;;;;;;;;;;;;;;;;;;;;;;;;;;;;;;;;;;;;;;;;;;;;;;;;;;;;;;;;;;;;;;;;;;;;;;;;;;;;;;;;;;;;;;;;;;;;;;;;;;;;;;;;;;;;;;;;;;;;;;;;;;;;;;;;;;;;;;;;;;;;
node;297993545;47.2299301;8.6671966;fuel;Avia;yes;AVIA;;Q300147;AVIA Wädenswil;"Mo-Fr 06:00-22:00; Sa,Su 07:00-22:00";;yes;yes;yes;;;Wädenswil;41;8820;Zugerstrasse;;;;;yes;;;;;;;;;;;;;;;;;;;;;;;;;;;;;;;;;;;;;;;;;;;;;;;;;;;;;;;;;;;;;;;;;;;;;;;;;;;;;;;;;;;;;;;;;;;;;;;;;;;;;;;;;;;;;;;;;;;;;;;;;;;;;;;;;;;;;;;;;;;;;;;;;;;;;;;;;;;;;;;;;;;;;;;;;;;;;;
node;298042177;47.5615782;7.5679874;fuel;BP;yes;;yes;Q152057;BP;24/7;de:Avia International;yes;yes;yes;2024-08-28;;;;;;;yes;yes;yes;yes;;;;;;;;;no;;;;;;;;;;;;;;;;;;;;;;;;;;;;;;;;;yes;;;0;;;;;;;;;;;;;;;;;;;;;;;;;;;;;;;;;;;;;;;;;;;;;;;;;;;;;;;;;;;;;;;;;;;;;;;;;;;;;;;;;;;;;;;;;;;;;;;;;;;;;;;;;;;;;;;;;;;;;;;;;;;;;;;;;
node;298154525;46.2269622;7.3859113;fuel;;;Tamoil;;;;;;;;;;;;;;;;;;;;;;;;;;;;;;;;;;;;;;;;;;;;;;;;;;;;;;;;;;;;;;;;;;;;;;;;;;;;;;;;;;;;;;;;;;;;;;;;;;;;;;;;;;;;;;;;;;;;;;;;;;;;;;;;;;;;;;;;;;;;;;;;;;;;;;;;;;;;;;;;;;;;;;;;;;;;;;;;;;;;;;;;;;;;;;;;;
node;298681614;47.4940397;9.4683968;fuel;Avia;yes;AVIA;;Q300147;Garage Zender;;;;yes;;;;;;;;;yes;;;;https://zehendergarage.ch/;;;+41 71 841 33 67;;;;;;;;yes;yes;;yes;3.8;no;yes;;yes;;;;;;;;;;;;;;;;;;;;;;;;;;;;;;;;;;;;;;;;;;;;;;;;;;;;;;fuel_station;small_craft_facility;;;;;;;;;;;;;;;;;;;;;;;;;;;;;;;;;;;;;;;;;;;;;;;;;;;;;;;;;;;;;;;;;;;;;;;;;;;;;;;;;;;;;;;;;;;;;;;;;;;
node;298715804;47.4800585;9.0297703;fuel;BEBECO;yes;Schweizer Armee;;;BEBECO;24/7;;;yes;;;;Bronschhofen;;9552;;;;;;;;;;;;;;;;;;;;;;;;;;;;;;;;;;;;;;;;;;;;;;;;;;;;;;;;;;;;;;;;;;;;;;;;;;;;;;;;;;yes;http://www.lba.admin.ch/internet/lba/de/home/dienstleistungen/bebeco0/kanton_st_gallen/9552_bronschhofen.html;;;;;;;;;;;;;;;;;;;;;;;;;;;;;;;;;;;;;;;;;;;;;;;;;;;;;;;;;;;;;;;;;;;;;;;;;;;;;;;;;;;;;;;;;;;;;;;;;
node;298856019;47.3297078;8.9190317;fuel;;yes;sikkens;;;;;;;yes;yes;;;;438;;Tösstalstrasse;;;;;;;;no;;;no;no;no;;;;;;;;;;;;;;;;;;;;no;no;no;no;no;no;no;;;;;;;;;;;;;;;;;;;;;;;;;;;;;;;;;;;;;;;;;;;;;;;;;;;;;;;;;;;;;;;;;;;;;;;;;;;;;;;;;;;;;;;;;;;;;;;;;;;;;;;;;;;;;;;;;;;;;;;;;;;;;;;;;;;;;;;;;;;;
node;298873230;46.2339875;6.0545816;fuel;;;Socar;;;Socar Meyrin;;;yes;;;;;;372;;Route de Meyrin;;;;;;;;;+41 22 782 64 23;;;;;;;;;;;;;;;;;;;;;;;;;;;;;;;;;;;;;;;;;;;;;;;;;;;;;;;;;;;;;;;;;;;;;;;;;;;;;;;;;;;;;;;;;;;;;;;;;;;;;;;;;;;;;;;;;;;;;;;;;;;;;;;;;;;;;;;;;;;;;;;;;;;;;;;;;;;;;;;;;;;;;;;;;;
node;299207655;47.4968466;9.457662;fuel;;;;;;;;;;;;;;;;;;;;;;;;;;;;;;;;;;;;;;;;;;;;;;;;;;;;;;;;;;;;;;;;;;;;;;;;;;;;;;;;;;;;;;;;;;;;;;;;;;;;;;;;;;;;;;;;;;;;;;;;;;;;;;;;;;;;;;;;;;;;;;;;;;;;;;;;;;;;;;;;;;;;;;;;;;;;;;;;;;;;;;;;;;;;;;;;;;;;
node;299311915;46.6246348;8.0304265;fuel;;;;;;Oeltrans;24/7;;no;;;;;;;;;;yes;yes;;yes;;;;;;;;;;;;;;;;;no;;;;;;;;;;;;;;;;;;;;;;;;;;;;;;;;;;survey;;;;;;;;;;;;;;;;;;;;;;;;;;;;;;;;;;;;;;;;;;;;;;;;;;;;;;;;;;;;;;;;;;;;;;;;;;;;;;;;;;;;;;;;;;;;;;;;;;;;;;;;;;;;;;;;;;;;;;;;;;;
node;299363864;47.1790298;8.4317033;fuel;Agrola;yes;;;Q397351;Agrola;;;;yes;yes;;;;;;;;;;;;;;;;;;;;;;;;;;;;;;;;;;;;;;;;;;;;;;;;;;;;;;;;;;;;;;survey;;;;;;;;;;;;;;;;;;;;;;;;;;;;;;;;;;;;;;;;;;;;;;;;;;;;;;;;;;;;;;;;;;;;;;;;;;;;;;;;;;;;;;;;;;;;;;;;;;;;;;;;;;;;;;;;;;;;;;;;;;;
node;299364634;47.1795921;8.4338162;fuel;Shell;yes;Shell;;Q110716465;AutoSuter;;;;yes;yes;;;;;;;;;;;;;;;;;;;;kiosk;;;;;;;;;;;;;;;;;;;;;;;;;;;;;;;;;;;;;;;;;;survey;;;;;;;;;;;;;;;;;;;;;;;;;;;;;;;;;;;;;;;;;;;;;;;;;;;;;;;;;;;;;;;;;;;;;;;;;;;;;;;;;;;;;;;;;;;;;;;;;;;;;;;;;;;;;;;;;;;;;;;;;;;
node;299752761;47.3803229;8.5463543;fuel;Independent;;;;;Scall;;;yes;;;2024-08-03;;;;;;;;;;;;;;;;;;;;;;;;;;;;;;;;;;;;;;;;;;;;;;;;;;;;;;;;;;;;;;;;;;;;;;;;;;;;;;;;;;;;;;;;;;;;;;;;;;;;;;;;;;;;;;;;;;;;;;;;;;;;;;;;;;;;;;;;;;;;;;;;;;;;;;;;;;;;;;;;;;;;;;;;;;;;;;;;;;;;;;;;
node;299813447;47.2867307;8.5433519;fuel;Independent;no;Voegtlin-Meyer;;;Voegtlin-Meyer;24/7;;;;;;;;;;;Langnau am Albis;;;;;;;;;;;;;no;;;;;;;;;;;;;;;;;;;;;;;;;;;;;;;;;;;;;;;;;;;;;;;;;;;;;;;;;;;;;;;;;;;;;;;;;;;;;;;;;;;;;;;;;;;;;;;;;;;;;;;;;;;;;;;;;;;;;;;;;;;;;;;;;;;;;;;;;;;;;;;;;;;;;;;;;;;;;;;;;;;;;
node;299813627;46.9685847;6.8482514;fuel;;;;;;Miniprix;Mo-Su,PH 06:00-20:00;;yes;;;;;;;;;;;;;;;;;;;;;;;;;;;;;;;;;;;;;;;;;;;;;;;;;;;;;;;;;;;;;;;;;;;;;;;;;;;;;;;;;;;;;;;;;;;;;;;;;;;;;;;;;;;;;;;;;;;;;;;;;;;;;;;;;;;;;;;;;;;;;;;;;;;;;;;;;;;;;;;;;;;;;;;;;;;;;;;;;;;;;;;;;;;
node;300418712;47.393705;8.5059844;fuel;Avia;;A.H. Meyer & Cie;;Q300147;Avia Hardturmstrasse;;;;;;2024-08-21;;;;;;Zürich Hardturmstrasse;;;;;;;;;;;;;;;;;;;;;;;;;;;;;;;;;;;;;;;;;;;;;;;;;;;;;;;;;;;;;;;;;;;;;;;;;;;;;;;;;;;;;;;;;;;;;;;;;;;;;;;;;;;;;;;;;;;;;;;;;;;;;;;;;;;;;;;;;;;;;;;;;;;;;;;;;;;;;;;;;;;;;;;;;;;;;;;;;;
node;300514678;47.7921289;8.6128299;fuel;SOCAR;yes;SOCAR Energy Switzerland;;Q1622293;SOCAR Bargen;;;;yes;yes;;;Bargen;5;8233;Haafpüntstrasse;Bargen;;;;;https://www.socarenergy.ch/;;;;;;;;;;;;;;;;;;;;;;;;;;;;;;;;;;;;;;;;;;EIU Hans Tanner-Gebhart;;;;;;;;;;;;;;;;;;;;;;;;;;;;;;;;;;;;;;;;;;;;;;;;;;;;;;;;;;;;;;;;;;;;;;;;;;;;;;;;;;;;;;;;;;;;;;;;;;;;;;;;;;;;;;;;;;;;;;;;;;;;;;;;;;;
node;300514679;47.7924263;8.6121257;fuel;Migrol;yes;Migrol;;Q1747771;Migrol Service Bargen;;de:Migrol;;yes;yes;;;Bargen SH;1;8233;Haafpüntstrasse;Bargen SH;;;;;https://www.migrol.ch/de/;;;;Migrol Bargen SH;;;;;;;;;;;;;;;;;;;;;;;;;;;;;;;;;;;;;;Tannhaus Handels AG;;;;;;;;;;;;;;;;;;;;;;;;;;;;;;;;;;;;;;;;;;;;;;;;;;;;;;;;;;;;;;;;;;;;;;;;;;;;;;;;;;;;;;;;;;;;;;;;;;;;;;;;;;;;;;;;;;;;;;;;;;;;;;;;;;;
node;301208147;47.3728411;8.5211422;fuel;BP;yes;;yes;Q152057;BP Service Wiedikon;24/7;;yes;yes;yes;2024-11-17;;Zürich;100;8003;Seebahnstrasse;Zürich Wiedikon;;;;;;;;;;;;;convenience;CH;;;;;;;;;;;;;;;;;yes;;;;;;;;;;;;;;;;;;;;;;;;;;;;;;;;;;;;;;;;;;;;;;;;;;;;;;;;;;;;;;;;;;;;;;;;;;;;;;;;;;;;;;;;;;;;;;;;;;;;;;;;;;;;;;;;;;;;;;;;;;;;;;;;;;;;;;;;;;;;;;;;;;;
node;301407672;47.4865145;8.2949688;fuel;Independent;;;;;Argovia Tankstelle;;;;;;;;;;;;;;;;;;;;;;;;;;;;;;;;;;;;;;;;;;;;;;;;;;;;;;;;;;;;;;;;;;;;;;;;;;;;;;;;;;;;;;;;;;;;;;;;;;;;;;;;;;;;;;;;;;;;;;;;;;;;;;;;;;;;;;;;;;;;;;;;;;;;;;;;;;;;;;;;;;;;;;;;;;;;;;;;;;;;;;;;;;;;;;
node;301467582;47.1707634;8.714282;fuel;;;;;;;;;;;;;;;;;;;;;;;;;;;;;;;;;;;;;;;;;;;;;;;;;;;;;;;;;;;;;;;;;;;;;;;;;;;;;;;;;;;;;;;;;;;;;;;;;;;;;;;;;;;;;;;;;;;;;;;;;;;;;;;;;;;;;;;;;;;;;;;;;;;;;;;;;;;;;;;;;;;;;;;;;;;;;;;;;;;;;;;;;;;;;;;;;;;;
node;303314859;47.3629959;9.0734928;fuel;BP;yes;;yes;Q152057;BP;24/7;en:BP;yes;yes;yes;;;;;;;;;;;;;;;;;;;;;;;;;;;;;;;;;;;;;;;;;;;;;;;;;;;;;;;;;;;;;;;;;;;;;;;;;;;;;;;;;;;;;;;;;;;;;;;;;;;;;;;;;;;;;;;;;;;;;;;;;;;;;;;;;;;;;;;;;;;;;;;;;;;;;;;;;;;;;;;;;;;;;;;;;;;;;;;;;;;;;;;;;
node;303699177;47.4518342;8.7012565;fuel;BP;;;yes;Q152057;BP Kemptthal Nord;"Mo-Sa 05:00-22:00; Su 06:00-22:00";;yes;;;;;;;;;;;;;;;;;;;;;;;;;;;;;;;;;;;;;;;;;;;;;;;;;;;;;;;;;;;;;;;;;;;;;;;;;;;;;;;;;;;;;;;;;;;;;;;;;;;;;;;;;;;;;;;;;;;;;;;;;;;;;;;;;;;;;;;;;;;;;;;;;;;;;;;;;;;;;;;;;;;;;;;;;;;;;;;;;;;;;;;;;;;
node;303844420;46.9713525;7.3553734;fuel;Agrola;yes;;;Q397351;Agrola;;;;yes;yes;;;;;;;;;;;;;;;;;;;;;;;;;;;;;;;;;;;;;;;;;;;;;;;;;;;;;;;;;;;;;;;;;;;;;;;;;;;;;;;;;;;;;;;;;;;;;;;;;;;;;;;;;;;;;;;;;;;;;;;;;;;;;;;;;;;;;;;;;;;;;;;;;;;;;;;;;;;;;;;;;;;;;;;;;;;;;;;;;;;;;;;;;
node;303903676;46.524892;6.5372817;fuel;;;;;;;;;;;;;;;;;;;;;;;;;;;;;;;;;;;;;;;;;;;;;;;;;;;;;;;;;;;;;;;;;;;;;;;;;;;;;;;;;;;;;;;;;;;;;;;;;;;;;;;;;;;;;;;;;;;;;;;;;;;;;;;;;;;;;;;;;;;;;;;;;;;;;;;;;;;;;;;;;;;;;;;;;;;;;;;;;;;;;;;;;;;;;;;;;;;;
node;304014558;46.0872339;7.2068309;fuel;;;Tamoil;yes;;St Christophe;;;;;;;;;;;;;;;;;;;;;;;;;;;;;;;;;;;;;;;;;;;;;;;;;;;;;;;;;;;;;;;;;;;;;;;;;;;;;;;;;;;;;;;;;;;;;;;;;;;;;;;;;;;;;;;;;;;;;;;;;;;;;;;;;;;;;;;;;;;;;;;;;;;;;;;;;;;;;;;;;;;;;;;;;;;;;;;;;;;;;;;;;;;;;;
node;304917714;47.4541266;8.4383363;fuel;Socar;;SOCAR Energy Switzerland;;Q1622293;SOCAR Buchs ZH;24/7;;;;;;;Buchs ZH;2;8107;Eichstrasse;Buchs ZH;;;;;https://www.socarenergy.ch/;;;;;;;;no;;;;;;;;;;;;;;;;;;;;;;;;;;;;;;;;;;;;;;;;;;;;;;;;;;;;;;;;;;;;;;;;;;;;;;;;;;;;;;;;;;;;;;;;;;;;;;;;;;;;;;;;;;;;;;;;;;;;;;;;;;;;;;;;;;;;;;;;;;;;;;;;;;;;;;;;;;;;;;;;;;;;;
node;304992273;47.4585509;8.4068901;fuel;Avia;;Schätzle;;Q300147;Avia Harbernstrasse;;;;;;;;;1;;Harbernstrasse;Otelfingen Harbernstrasse;;;;;;;;;;;;;;;;;;;;;;;;;;;;;;;;;;;;;;;;;;;;;;;;;;;;;;;;;;;;;;;;;;;;;;;;;;;;;;;;;;;;;;;;;;;;;;;;;;;;;;;;;;;;;;;;;;;;;;;;;;;;;;;;;;;;;;;;;;;;;;;;;;;;;;;;;;;;;;;;;;;;;;;;;;;;;;;;;;
node;304993060;47.4460704;8.4631797;fuel;Agrola;;;;Q397351;Agrola Regensdorf;;de:Agrola;;;;;;;;;;Regensdorf;;;;;;;;;;;;;;;;;;;;;;;;;;;;;;;;;;;;;;;;;;;;;;;;;;;;;;;;;;;;;;;;;;;;;;;;;;;;;;;;;;;;;;;;;;;;;;;;;;;;;;;;;;;;;;;;;;;;;;;;;;;;;;;;;;;;;;;;;;;;;;;;;;;;;;;;;;;;;;;;;;;;;;;;;;;;;;;;;;
node;305469317;47.0012366;7.4619783;fuel;Avia;yes;;;Q300147;Avia;;;;yes;yes;2025-02-25;;;;;;;;;;;;;;;;;;;;;;;;;;;;;;;;;;;;;;;;;;;;;;;;;;;;;;;;;;;;;;;;;;;;;;;;;;;;;;;;;;;;;;;;;;;;;;;;;;;;;;;;;;;;;;;;;;;;;;;;;;;;;;;;;;;;;;;;;;;;;;;;;;;;;;;;;;;;;;;;;;;;;;;;;;;;;;;;;;;;;;;;
node;305469322;47.0043064;7.4629537;fuel;SOCAR;yes;SOCAR Energy Switzerland;;Q1622293;SOCAR Zollikofen;;;;yes;yes;2025-02-25;;Zollikofen;222;3052;Bernstrasse;Zollikofen;;;;;https://www.socarenergy.ch/;;;;;;;;;CH;;;;;;;;;;;;;;;;;;;;;;;;;;;;;;;;;;;;;;;;;;;;;;;;;;;;;;;;;;;;;;;;;;;;;;;;;;;;;;;;;;;;;;;;;;;;;;;;;;;;;;;;;;;;;;;;;;;;;;;;;;;;;;;;;;;;;;;;;;;;;;;;;;;;;;;;;;;;;;;;;;;;
node;305701426;47.4448843;8.6233539;fuel;Avia;;Avia Osterwalder Zürich;yes;Q300147;Avia Bassersdorf;;de:Avia International;;;;;;;;;;Bassersdorf;;;;;;;;;;;;;;;;;;;;;;;;;;;;;;;;;;;;;;;;;;;;;;;;;;;;;;;;;;;;;;;;;;;;;;;;;;;;;;;;;;;;;;;;;;;;;;;;;;;;;;;;;;;;;;;;;;;;;;;;;;;;;;;;;;;;;;;;;;;;;;;;;;;;;;;;;;;;;;;;;;;;;;;;;;;;;;;;;;
node;305707837;47.4445742;8.6251146;fuel;SOCAR;;SOCAR Energy Switzerland;yes;Q1622293;SOCAR Bassersdorf;;en:SOCAR;;;;;;Bassersdorf;46;8303;Klotenerstrasse;Bassersdorf;;;;;https://www.socarenergy.ch/;;;;;;;;;;;;;;;;;;;;;;;;;;;;;;;;;;;;;;;;;;;;;;;;;;;;;;;;;;;;;;;;;;;;;;;;;;;;;;;;;;;;;;;;;;;;;;;;;;;;;;;;;;;;;;;;;;;;;;;;;;;;;;;;;;;;;;;;;;;;;;;;;;;;;;;;;;;;;;;;;;;;;;;;;;;;;
node;305765115;47.0631953;7.3348212;fuel;MACRO SWISS ENERGY AG;yes;MACRO SWISS ENERGY AG;;;MACRO SWISS ENERGY AG;;;;yes;no;;;Suberg;33;3262;Bernstrasse;;;;;;;;;;;;;;;;;;;;;;;;;;;;;;;;;;yes;;;;;;;;;;;;;;;yes;;;;;;;;;;;;;;;;;;;;;;;;;;;;;;;;;;Agrola;;;;;;;;;;;;;;;;;;;;;;;;;;;;;;;;;;;;;;;;;;;;;;;;;;;;;;;;;;;;;;;;;;;;;;;;;;;;;;;;;;;;;;;;;;;;;;;;
node;305765123;47.0679047;7.3157883;fuel;bp;yes;;;;;;;;yes;yes;;;;;;;;;;;;;;;;;;;;;;;;;;;;;;;;;;;;;;;;;;;;;;;;;;;;;;;;;;;;;;;;;;;;;;;;;;;;;;;;;;;;;;;;;;;;;;;;;;;;;;;;;;;;;;;;;;;;;;;;;;;;;;;;;;;;;;;;;;;;;;;;;;;;;;;;;;;;;;;;;;;;;;;;;;;;;;;;;;;;;;;;;
node;306231847;46.7038;6.5687812;fuel;;;;;;Simond;;;;;;;;;;;;;;;;;;;;;;;;;;;;;;;;;;;;;;;;;;;;;;;;;;;;;;;;;;;;;;;;;;;;;;;;;;;;;;;;;;;;;;;;;;;;;;;;;;;;;;;;;;;;;;;;;;;;;;;;;;;;;;;;;;;;;;;;;;;;;;;;;;;;;;;;;;;;;;;;;;;;;;;;;;;;;;;;;;;;;;;;;;;;;;
node;306498031;46.5825559;6.6012717;fuel;Shell;;Shell;limited;Q110716465;Shell;;;yes;;;;;;;;;;;;;;;;;;;;;;;;;;;;;;;;;;;;;;;;;;;;;;;;;;;;;;;;;;;;;;;;;;;;;;;;;;;;;;;;;;;;;;;;;;;;;;;;;;;;;;;;;;;;;;;;;;;;;;;;;;;;;;;;;;;;;;;;;;;;;;;;;;;;;;;;;;;;;;;;;;;;;;;;;;;;;;;;;;;;;;;;;;;
node;307028624;47.2111081;7.5442211;fuel;Migrol;yes;Migrol;;Q1747771;Migrol Tankstelle Solothurn;24/7;de:Migrol;;yes;yes;;;Solothurn;30;4500;Baselstrasse;Solothurn;;;;yes;https://www.migrol.ch/de/;;;;Migrol Solothurn;;;;no;;;;;;;;;;;;;;;;;;;;;;;;;;;;;;;;;yes;;;;;;;;;;;;;;;;;;;;;;;;;;;;;;;;;;;;;;;;;;;;;;;;;;;;;;;;;;;;;;;;;;;;;;;;;;;;;;;;;;;;;;;;;;;;;;;;;;;;;;;;;;;;;;;;;;;;;;;;;;;;;;;;;;;;
node;307121153;47.4186697;8.6844858;fuel;;;;;;AVIA;;;yes;;;;;;;;;;;;;;;;;;;;;;;;;;;;;;;;;;;;;;;;;;;;;;;;;;;;;;;;;;;;;;;;;;;;;;;;;;;;;;;;;;;;;;;;;;;;;;;;;;;;;;;;;;;;;;;;;;;;;;;;;;;;;;;;;;;;;;;;;;;;;;;;;;;;;;;;;;;;;;;;;;;;;;;;;;;;;;;;;;;;;;;;;;;
node;307121156;47.4220428;8.6848857;fuel;Migrol;yes;Migrol;yes;Q1747771;Migrol Tankstelle Effretikon;24/7;de:Migrol;yes;yes;;;;Effretikon;1;8307;Vogelsangstrasse;Effretikon;;;;yes;https://www.migrol.ch/de/;;;;Migrol Effretikon;;;;no;;;;;;;;;;;;;;;;;;;;;;;;;;;;;;;;;yes;Garage Kempf;;;;;;;;;;;;;;;;;;;;;;;;;;;;;;;;;;;;;;;;;;;;;;;;;;;;;;;;;;;;;;;;;;;;;;;;;;;;;;;;;;;;;;;;;;;;;;;;;;;;;;;;;;;;;;;;;;;;;;;;;;;;;;;;;;;
node;307363530;47.4620039;8.3353957;fuel;;;Coop Mineraloel;;;Coop;;;yes;;;2024-12-13;;;;;;;;;;;;;;;;;;;;;;;;;;;;;;;;;;;;;;;;;;;;;;;;;;;;;;;;;;;;;;;;;;;;;;;;;;;;;;;;;;;;;;;;;;;;;;;;;;;;;;;;;;;;;;;;;;;;;;;;;;;;;;;;;;;;;;;;;;;;;;;;;;;;;;;;;;;;;;;;;;;;;;;;;;;;;;;;;;;;;;;;
node;307661791;47.2370963;8.6374727;fuel;Ruedi Rüssel;;;;Q111725154;Ruedi Rüssel;;;;;;;;;;;;;;;;;;;;;;;;;;;;;;;;;;;;;;;;;;;;;;;;;;;;;;;;;;;;;;;;;;;;;;;;;;;;;;;;;;;;;;;;;;;;;;;;;;;;;;;;;;;;;;;;;;;;;;;;;;;;;;;;;;;;;;;;;;;;;;;;;;;;;;;;;;;;;;;;;;;;;;;;;;;;;;;;;;;;;;;;;;;;;;
node;307662123;47.2375535;8.6452619;fuel;;yes;;yes;;Winterberg;;;;yes;;;;;;;;;;;;yes;;;;;;;yes;;;;;;;;;;;;;;;;;;;;;;;;;;;;;;;;;;;;;;;;;;;;;;;;;;;;;;;;;;;;;;;;;;;;;;;;;;;;;;;;;;;;;;;;;;;;;;;;;;;;;;;;;;;;;;;;;;;;;;;;;;;;;;;;;;;;;;;;;;;;;;;;;;;;;;;;;;;;;;;;;;;;;;;
node;307669315;47.2191945;8.669648;fuel;;;;;;;;;;;;;;;;;;;;;;;;;;;;;;;;;;;;;;;;;;;;;;;;;;;;;;;;;;;;;;;;;;;;;;;;;;;;;;;;;;;;;;;;;;;;;;;;;;;;;;;;;;;;;;;;;;;;;;;;;;;;;;;;;;;;;;;;;;;;;;;;;;;;;;;;;;;;;;;;;;;;;;;;;;;;;;;;;;;;;;;;;;;;;;;;;;;;
node;307695032;47.2237124;7.7784468;fuel;Avia;;AVIA;;Q300147;AVIA;;de:Avia International;yes;;;;;;;;;;;;;;;;;;;;;;;;;;;;;;;;;;;;;;;;;;;;;;;;;;;;;;;;;;;;;;;;;;;;;;;;;;;;;;;;;;;;;;;;;;;;;;;;;;;;;;;;;;;;;;;;;;;;;;;;;;;;;;;;;;;;;;;;;;;;;;;;;;;;;;;;;;;;;;;;;;;;;;;;;;;;;;;;;;;;;;;;;;;
node;307698374;47.234814;9.0216688;fuel;;;BP;no;;BP;;;;;;;;;;;;;;;;;;;;;;;;;;;;;;;;;;;;;;;;;;;;;;;;;;;;;;;;;;;;;;;;;;;;;;;;;;;;;;;;;;;;;;;;;;;;;;;;;;;;;;;;;;;;;;;;;;;;;;;;;;;;;;;;;;;;;;;;;;;;;;;;;;;;;;;;;;;;;;;;;;;;;;;;;;;;;;;;;;;;;;;;;;;;;;
node;307776683;46.6908673;6.7030092;fuel;;;;;;;;;;;;;;;;;;;;;;;;;;;;;;;;;;;;;;;;;;;;;;;;;;;;;;;;;;;;;;;;;;;;;;;;;;;;;;;;;;;;;;;;;;;;;;;;;;;;;;;;;;;;;;;;;;;;;;;;;;;;;;;;;;;;;;;;;;;;;;;;;;;;;;;;;;;;;;;;;;;;;;;;;;;;;;;;;;;;;;;;;;;;;;;;;;;;
node;307821699;46.8623721;7.4607301;fuel;Ruedi Rüssel;;;;Q111725154;Ruedi Rüssel;;;;;;;;;;;;Ruedi Rüssel;;;;;;;;;;;;;;;;;;;;;;;;;;;;;;;;;;;;;;;;;;;;;;;;;;;;;;;;;;;;;;;;;;;;;;;;;;;;;;;;;;;;;;;;;;;;;;;;;;;;;;;;;;;;;;;;;;;;;;;;;;;;;;;;;;;;;;;;;;;;;;;;;;;;;;;;;;;;;;;;;;;;;;;;;;;;;;;;;;
node;308075661;46.9435046;7.3711499;fuel;Shell;yes;Migrol;;Q110716465;Shell;;;;yes;;;;Bern;104;3027;Riedbachstrasse;Bern Westside;;;;;https://www.migrol.ch/de/;;yes;;Migrol Westside;;yes;;;;;;;;;;;;;;;;;;;;;;;;;;;;;;;;;;;;;;;;;;;;;;;;;;;;;;;;;;;;;;;;;;;;;;;;;;;;;;;;;;;;;;;;;;;;;;;;;;;;;;;;;;;;;;;;;;;;;;;;;;;;;;;;;;;;;;;;;;;;;;;;;;;;;;;;;;;;;;;;;;;;;;;
node;308077581;46.9069076;7.2358556;fuel;Agrola;;;;Q397351;Agrola;;;;;;;;;;;;;;;;;;;;;;;;;;;;;;;;;;;;;;;;;;;;;;;;;;;;;;;;;;;;;;;;;;;;;;;;;;;;;;;;;;;;;;;;;;;;;;;;;;;;;;;;;;;;;;;;;;;;;;;;;;;;;;;;;;;;;;;;;;;;;;;;;;;;;;;;;;;;;;;;;;;;;;;;;;;;;;;;;;;;;;;;;;;;;;
node;309112387;47.4344986;8.7635897;fuel;Avia;;;;Q300147;AVIA;;;;;;;;;;;;;;;;;;;;;;;;;;;;;;;;;;;;;;;;;;;;;;;;;;;;;;;;;;;;;;;;;;;;;;;;;;;;;;;;;;;;;;;;;;;;;;;;;;;;;;;;;;;;;;;;;;;;;;;;;;;;;;;;;;;;;;;;;;;;;;;;;;;;;;;;;;;;;;;;;;;;;;;;;;;;;;;;;;;;;;;;;;;;;;
node;309425295;47.327756;8.7824754;fuel;BP;yes;;yes;Q152057;BP Zürcherstrasse;"Mo-Sa 05:30-23:30; PH,Su 05:30-23:30";en:BP;;yes;;;;;;;;;;;;;;;;;;yes;yes;;;;;;;;;;;;;;;;;;;;;;;;;;;;;;;;;;;;;;;;;;;;;;;;;;;;;;;;;;;;;;;;;;;;;;;;;;;;;;;;;;;;;;;;;;;;;;;;;;;;;;;;;;;;;;;;;;;;;;;;;;;;;;;;;;;;;;;;;;;;;;;;;;;;;;;;;;;;;;;;;;;;;;;
node;309431866;47.0904271;6.8085505;fuel;Migrol;yes;Migrol;;Q1747771;Migrol;;de:Migrol;;yes;yes;;;;;;;;;;;;;;;;;;;;yes;;;;;;;;;;;;;;;;;;;;;;;;;;;;;;;;;;;;;;;;;;;;;;;;;;;;;;;;;;;;;;;;;;;;;;;;;;;;;;;;;;;;;;;;;;;;;;;;;;;;;;;;;;;;;;;;;;;;;;;;;;;;;;;;;;;;;;;;;;;;;;;;;;;;;;;;;;;;;;;;;;;;;
node;309431882;47.093177;6.8150642;fuel;;;HK;;;Entilles;;;;;;;;;;;;;;;;;;;;;;;;;;;;;;;;;;;;;;;;;;;;;;;;;;;;;;;;;;;;;;;;;;;;;;;;;;;;;;;;;;;;;;;;;;;;;;;;;;;;;;;;;;;;;;;;;;;;;;;;;;;;;;;;;;;;;;;;;;;;;;;;;;;;;;;;;;;;;;;;;;;;;;;;;;;;;;;;;;;;;;;;;;;;;;
node;309765158;47.0636968;6.7607215;fuel;Socar;;Socar;;Q1622293;Socar;;;;;;;;;;;;;;;;;;;;;;;;;;;;;;;;;;;;;;;;;;;;;;;;;;;;;;;;;;;;;;;;;;;;;;;;;;;;;;;;;;;;;;;;;;;;;;;;;;;;;;;;;;;;;;;;;;;;;;;;;;;;;;;;;;;;;;;;;;;;;;;;;;;;;;;;;;;;;;;;;;;;;;;;;;;;;;;;;;;;;;;;;;;;;;
node;309956444;46.6735462;6.569497;fuel;;;Shell;;;;;;yes;;;2023-09-09;;;;;;;;;;;;;;;;;;;;;;;;;;;;;;;;;;;;;;;;;;;;;;;;;;;;;;;;;;;;;;;;;;;;;;;;;;;;;;;;;;;;;;;;;;;;;;;;;;;;;;;;;;;;;;;;;;;;;;;;;;;;;;;;;;;;;;;;;;;;;;;;;;;;;;;;;;;;;;;;;;;;;;;;;;;;;;;;;;;;;;;;
node;309956446;46.6737199;6.5703936;fuel;;;Shell;;;;;;yes;;;2023-09-09;;;;;;;;;;;;;;;;;;;;;;;;;;;;;;;;;;;;;;;;;;;;;;;;;;;;;;;;;;;;;;;;;;;;;;;;;;;;;;;;;;;;;;;;;;;;;;;;;;;;;;;;;;;;;;;;;;;;;;;;;;;;;;;;;;;;;;;;;;;;;;;;;;;;;;;;;;;;;;;;;;;;;;;;;;;;;;;;;;;;;;;;
node;309986668;46.0537291;8.9728703;fuel;Migrol;;Migrol;;Q1747771;Migrol;;de:Migrol;;;;;;;;;;;;;;;;;;;;;;;;;;;;;;;;;;;;;;;;;;;;;;;;;;;;;;;;;;;;;;;;;;;;;;;;;;;;;;;;;;;;;;;;;;;;;;;;;;;;;;;;;;;;;;;;;;;;;;;;;;;;;;;;;;;;;;;;;;;;;;;;;;;;;;;;;;;;;;;;;;;;;;;;;;;;;;;;;;;;;;;;;;;;
node;310091786;47.2662666;7.3583741;fuel;;;;;;;;;;;;;Potlatch 0.10f;;;;;;;;;;;;;;;;;;;;;;;;;;;;;;;;;;;;;;;;;;;;;;;;;;;;;;;;;;;;;;;;;;;;;;;;;;;;;;;;;;;;;;;;572;;;;;;;;;;;;;;;;;;;;;;;;;;;;;;;;;;;;;;;;;;;;;;;;;;;;;;;;;;;;;;;;;;;;;;;;;;;;;;;;;;;;;;;;;;;;;;;
node;310205995;47.3968963;8.4404596;fuel;BP;;;;Q152057;BP;;;;;;;;;;;;;;;;;;;;;;;;;;;;;;;;;;;;;;;;;;;;;;;;;;;;;;;;;;;;;;;;;;;;;;;;;;;;;;;;;;;;;;;;;;;;;;;;;;;;;;;;;;;;;;;;;;;;;;;;;;;;;;;;;;;;;;;;;;;;;;;;;;;;;;;;;;;;;;;;;;;;;;;;;;;;;;;;;;;;;;;;;;;;;;
node;310299936;47.2974998;7.9359255;fuel;SOCAR;;SOCAR Energy Switzerland;;Q1622293;SOCAR Oftringen;;;;;;;;Oftringen;17;4665;Äussere Luzernerstrasse;Oftringen;;;;;https://www.socarenergy.ch/;;;;;;;;;;;;;;;;;;;;;;;;;;;;;;;;;;;;;;;;;;;;;;;;;;;;;;;;;;;;;;;;;;;;;;;;;;;;;;;;;;;;;;;;;;;;;;;;;;;;;;;;;;;;;;;;;;;;;;;;;;;;;;;;;;;;;;;;;;;;;;;;;;;;;;;;;;;;;;;;;;;;;;;;;;;;;
node;310314796;47.4294761;8.6871544;fuel;SOCAR;;SOCAR Energy Switzerland;;Q1622293;SOCAR Effretikon;;;yes;;;;;Effretikon;20;8307;Rikonerstrasse;Effretikon;;;;;https://www.socarenergy.ch/;;;;;;;;;;;;;;;;;;;;;;;;;;;;;;;;;;;;;;;;;;;;;;;;;;;;;;;;;;;;;;;;;;;;;;;;;;;;;;;;;;;;;;;;;;;;;;;;;;;;;;;;;;;;;;;;;;;;;;;;;;;;;;;;;;;;;;;;;;;;;;;;;;;;;;;;;;;;;;;;;;;;;;;;;;;;;
node;310390136;46.0094621;8.9640309;fuel;;;;yes;;Socar;;;;;;2024-09-07;;;;;;;;;;;;;;;;;;;;;;;;;;;;;;;;;;;;;;;;;;;;;;;;;;;;;;;;;;;;;;;;;;;;;;;;;;;;;;;;;;;;;;;;;;;;;;;;;;;;;;;;;;;;;;;;;;;;;;;;;;;;;;;;;;;;;;;;;;;;;;;;;;;;;;;;;;;;;;;;;;;;;;;;;;;;;;;;;;;;;;;;
node;310567715;46.3199827;10.0592318;fuel;Migrol;;;;Q1747771;Migrol;;de:Migrol;;;;;;;23;;Vial di Curtin;;;;;;;;;;;;;;;;;;;;;;;;;;;;;;;;;;;;;;;;;;;;;;;;;;;;;;;;;;;;;;;;;;;;;;;;;;;;;;;;;;;;;;;;;;;;;;;;;;;;;;;;;;;;;;;;;;;;;;;;;;;;;;;;;;;;;;;;;;;;;;;;;;;;;;;;;;;;;;;;;;;;;;;;;;;;;;;;;;;
node;310668275;47.1057836;8.3795569;fuel;Agrola;yes;LANDI Buchrain;;Q397351;Agrola;;;;yes;yes;;;;;;;;;;;;;;;;;;;;;;;;;;;4;;;;;;;;;;;;;;;;;;;;;;;;;;;;yes;;;;;;;;;;;;;;;;;;;;;;;;;;;;;;;;;;;;;;;;;;;;;;;;;;;;;;;;;;;;;;;;;;;;;;;;;;;;;;;;;;;;;;;;;;;;;;;;;;;;;;;;;;;;;;;;;;;;;;;;;;;;;;;;;;
node;310668277;47.1167598;8.3914953;fuel;;;Avia;;;Centrum Garage Notter;;;no;;;;;;;;;;;;;;;;;;;;;;;;;;;;;;;;;;;;;;;;;;;;;;;;;;;;;;;;;;;;;;;;;;;;;;;;;;;;;;;;;;;;;;;;;;;;;;;;;;;;;;;;;;;;;;;;;;;;;;;;;;;;;;;;;;;;;;;;;;;;;;;;;;;;;;;;;;;;;;;;;;;;;;;;;;;;;;;;;;;;;;;;;;;
node;310875963;47.2302544;8.8481246;fuel;Migrol;yes;Migrol;;Q1747771;Migrol Tankstelle AMAG Jona;24/7;de:Migrol;;yes;yes;;;Jona;101;8645;St. Gallerstrasse;Jona AMAG;;;;yes;https://www.migrol.ch/de/;;;;Migrol AMAG Jona;;;;no;;;;;;;;;;;;;;;;;;;;;;;;;;;Genaue Lage?;;;;;;yes;;;;;;;;;;;;;;;;;;;;;;;;;;;;;;;;;;;;;;;;;;;;;;;;;;;;;;;;;;;;;;;;;;;;;;;;;;;;;;;;;;;;;;;;;;;;;;;;;;;;;;;;;;;;;;;;;;;;;;;;;;;;;;;;;;;;
node;311097320;46.889789;7.2243433;fuel;Avia;;Avia;;Q300147;Avia;;;;;;;;;;;;;;;;;;;;;;;;;;;;;;;;;;;;;;;;;;;;;;;;;;;;;;;;;;;;;;;;;;;;;;;;;;;;;;;;;;;;;;;;;;;;;;;;;;;;;;;;;;;;;;;;;;;;;;;;;;;;;;;;;;;;;;;;;;;;;;;;;;;;;;;;;;;;;;;;;;;;;;;;;;;;;;;;;;;;;;;;;;;;;;
node;311185159;47.4403024;9.4101696;fuel;BP;yes;BP;;Q152057;BP;;;;yes;yes;;;;;;;;;;;;;;;;;yes;yes;;;;;;;;;;;;;;;;;;;;;;;;;;;;;;;;;;;;;;;;;;;;;;;;;;;;;;;;;;;;;;;;;;;;;;;;;;;;;;;;;;;;;;;;;;;;;;;;;;;;;;;;;;;;;;;;;;;;;;;;;;;;;;;;;;;;;;;;;;;;;;;;;;;;;;;;;;;;;;;;;;;;;;;
node;311252839;46.4237682;6.2544241;fuel;;;;yes;;Coop Pronto;;;;;;;;Vich;4;1267;Chemin de la Bichette;;yes;yes;yes;;https://www.coop-pronto.ch/fr/site/vich;;;+41 22 364 32 30;;;;;;;;;;;;;;;;;;;;;;;;;;;;;;;;;;;;;;;;;;;;;;;;;;;;;;;;;;;;;;;;;;;;;;;;;;;;yes;;;;;;;;;;;;;;;;;;;;;;;;;;;;;;;;;;;;;;;;;;;;;;;;;;;;;;;;;;;;;;;;;;;;;;;;;;;;;;;;;;;;;;;;;;;;;;
node;311252842;46.4253592;6.2543583;fuel;;;;;;;;;;;;;;;;;;;;;;;;;;;;;;;;;;;;;;;;;;;;;;;;;;;;;;;;;;;;;;;;;;;;;;;;;;;;;;;;;;;;;;;;;;;;;;;;;;;;;;;;;;;;;;;;;;;;;;;;;;;;;;;;;;;;;;;;;;;;;;;;;;;;;;;;;;;;;;;;;;;;;;;;;;;;;;;;;;;;;;;;;;;;;;;;;;;;
node;311319045;47.229728;8.4785611;fuel;Migrol;yes;Migrol;;Q1747771;Migrol Tankstelle Mettmenstetten;24/7;de:Migrol;;yes;yes;;;Mettmenstetten;2;8932;Baarerstrasse;Mettmenstetten;;;;yes;https://www.migrol.ch/de/;;;;Migrol Mettmenstetten;;;;no;;;;;;;;;;;;;;;;;;;;;;;;;;;;;;;;;yes;;;;;;;;;;;;;;;;;;;;;;;;;;;;;;;;;;;;;;;;;;;;;;;;;;;;;;;;;;;;;;;;;;;;;;;;;;;;;;;;;;;;;;;;;;;;;;;;;;;;;;;;;;;;;;;;;;;;;;;;;;;;;;;;;;;;
node;311976893;47.4010238;8.4915916;fuel;Shell;yes;Moveri;;Q154950;Shell Winzerstrasse;24/7;;no;yes;;;;Zürich;38;8049;Winzerstrasse;Zürich Winzerstrasse;;;;yes;;;;;;;;;no;CH;;;;;;;;;;;;;;;;;;;;;;;;;;;;;;;;yes;;;;4;;;;;;;;;;;;;;;;;;;;;;;;;;;;;;;;;;;;;;;;;;;;;;;;;;;;;;;;;;;;;;;;;;;;;;;;;;;;;;;;;;;;;;;;;;;;;;;;;;;;;;;;;;;;;;;;;;;;;;;;;;;;;;;;
node;312012092;47.4141963;8.518214;fuel;Migrol;yes;Migrol;yes;Q1747771;Migrol Service Glaubten;24/7;de:Migrol;yes;yes;yes;;;Zürich;387;8046;Wehntalerstrasse;Zürich Glaubten;;;;yes;https://www.migrol.ch/de/;;;;Migrol Glaubten;;;;;CH;yes;yes;yes;yes;yes;;;;;;;;;;;;;;;;;;;;;;;;;;;;Roger Lüthi;;;;;;;;;;;;;;;;;;;;;;;;;;;;;;;;;;;;;;;;;;;;;;;;;;;;;;;;;;;;;;;;;;;;;;;;;;;;;;;;;;;;;;;;;;;;;;;;;;;;;;;;;;;;;;;;;;;;;;;;;;;;;;;;;;;
node;312365830;46.1281589;7.0600696;fuel;Shell;;Shell;;Q110716465;Shell;;;yes;;;;;;;;;;;;;;;;;;;;;;;;;;;;;;;;;;;;;;;;;;;;;;;;;;;;;;;;;;;;;;;;;;;;;;;;;;;;;;;;;;;;;;;;;;;;;;;;;;;;;;;;;;;;;;;;;;;;;;;;;;;;;;;;;;;;;;;;;;;;;;;;;;;;;;;;;;;;;;;;;;;;;;;;;;;;;;;;;;;;;;;;;;;
node;312468153;47.1247819;7.2596305;fuel;Tamoil;yes;Tamoil;;Q706793;Tamoil;;en:Tamoil;;yes;yes;;;;;;;;;;;;;;;;;;;;;;;;;;;;;;;;;;;;;;;;;;;;;;;;;;;;;;;;;;;;;;;;;;;;;;;;;;;;;;;;;;;;;;;;;;;;;;;;;;;;;;;;;;;;;;;;;;;;;;;;;;;;;;;;;;;;;;;;;;;;;;;;;;;;;;;;;;;;;;;;;;;;;;;;;;;;;;;;;;;;;;;;;
node;312630282;47.1296307;7.2547306;fuel;;yes;;;;Marché Brügg;24/7;;;yes;;;;;;;;;;;;;;;;;;;;;;;;;;;;;;;;;;;;;;;;;;;;;;;;;;;;;;;;;;;;;;;;;;;;;;;;;;;;;;;;;;;;;;;;;;;;;;;;;;;;;;;;;;;;;;;;;;;;;;;;;;;;;;;;;;;;;;;;;;;;;;;;;;;;;;;;;;;;;;;;;;;;;;;;;;;;;;;;;;;;;;;;;;
node;313192016;47.4305917;8.9564422;fuel;;;Landi;;;Landi;;;;;;;;;;;;;;;;;;;;;;;;;;;;;;;;;;;;;;;;;;;;;;;;;;;;;;;;;;;;;;;;;;;;;;;;;;;;;;;;;;;;;;;;;;;;;;;;;;;;;;;;;;;;;;;;;;;;;;;;;;;;;;;;;;;;;;;;;;;;;;;;;;;;;;;;;;;;;;;;;;;;;;;;;;;;;;;;;;;;;;;;;;;;;;
node;313268393;47.3802915;8.4940158;fuel;Shell;yes;Shell (Switzerland);;Q154950;Shell Rautistrasse;PH,Mo-Su 00:00-24:00;;yes;yes;;;;Zürich;12;8047;Rautistrasse;Zürich Rautistrasse;;;;;https://find.shell.com/ch/fuel/10023335-shell-rautistrasse/de_CH;;yes;;;;;;;CH;;;;;;;;;;;;;;;;;;;;;;;;;;;;;;;;;;;;;;;;;;;;;;;;;;;;;;;;;;;;;;;;;;;;;;;;;;;;;;;;;;;;;;;;;;;;;;;;;;;;;;;;;;;;;;;;;;;;;;;;;;;;;;;;;;;;;;;;;;;;;;;;;;;;;;;;;;;;;;;;;;;;
node;313783389;46.4767158;6.4011642;fuel;;;;;;Coop;;;yes;;;;;;;;;;;;;;;;;;;;;;;;;;;;;;;;;;;;;;;;;;;;;;;;;;;;;;;;;;;;;;;;;;;;;;;;;;;;;;;;;;;;;;;;;;;;;yes;;;;;;;;;;;;;;;;;;;;;;;;;;;;;;;;;;;;;;;;;;;;;;;;;;;;;;;;;;;;;;;;;;;;;;;;;;;;;;;;;;;;;;;;;;;;;;
node;315513529;47.1008381;8.2673762;fuel;Avia;;Avia;yes;Q300147;AVIA Tankstelle;;;;;;;;;;;;;;;;;;;;;;;;;;;;;;;;;;;;;;;;;;;;;;;;;;;;;;;;;;;;;;;;;;;;;;;;;;;;;;;;;;;;;;;;;;;;;;;;;;;;;;;;;;;;;;;;;;;;;;;;;;;;;;;;;;;;;;;;;;;;;;;;;;;;;;;;;;;;;;;;;;;;;;;;;;;;;;;;;;;;;;;;;;;;;;
node;315538029;47.4495331;8.2128865;fuel;;;;;;;;;;;;;;;;;;;;;;;;;;;;;;;;;;;;;;;;;;;;;;;;;;;;;;;;;;;;;;;;;;;;;;;;;;;;;;;;;;;;;;;;;;;;;;;;;;;;;;;;;;;;;;;;;;;;;;;;;;;;;;;;;;;;;;;;;;;;;;;;;;;;;;;;;;;;;;;;;;;;;;;;;;;;;;;;;;;;;;;;;;;;;;;;;;;;
node;315538104;47.4682442;8.2113135;fuel;Independent;;Gebrüder Knecht;;;;24/7;;no;;;;;;;;;;;;;;;;;;;;;;;;;;;;;;;;;;;;;;;;;;;;;;;;;;;;;;;;;;;;;;;;;;;;;;;;;;;;;;;;;;;;;;;;;;;;;;;;;;;;;;;;;;;;;;;;;;;;;;;;;;;;;;;;;;;;;;;;;;;;;;;;;;;;;;;;;;;;;;;;;;;;;;;;;;;;;;;;;;;;;;;;;;;
node;315599575;47.3967679;7.8541644;fuel;;;;;;;;;;;;;Merkaartor 0.12;;;;;;;;;;;;;;;;;;;;;;;;;;;;;;;;;;;;;;;;;;;;;;;;;;;;;;;;;;;;;;;;;;;;;;;;;;;;;;;;;;;;;;;;;;;;;;;;;;;;;;;;;;;;;;;;;;;;;;;;;;;;;;;;;;;;;;;;;;;;;;;;;;;;;;;;;;;;;;;;;;;;;;;;;;;;;;;;;;;;;;;
node;316022671;47.4616297;9.5963017;fuel;Avia;yes;;;Q300147;Avia;24/7;;;yes;;;;;;;;;;;;yes;;;;;;;;;;;;;;;;;;;;;;;;;;;;;;;;;;;;;;;;;;;;;;;;;;;;;;;;;;;;;;;;;;;;;;;;;;;;;;;;;;;;;;;;;;;;;;;;;;;;;;;;;;;;;;;;;;;;;;;;;;;;;;;;;;;;;;;;;;;;;;;;;;;;;;;;;;;;;;;;;;;;;;;;;;;;;;
node;316022885;47.4439922;9.5323785;fuel;BP;;;;Q152057;BP;;;;;;;;;;;;;;;;;;;;;;;;;;;;;;;;;;;;;;;;;;;;;;;;;;;;;;;;;;;;;;;;;;;;;;;;;;;;;;;;;;;;;;;;;;;;;;;;;;;;;;;;;;;;;;;;;;;;;;;;;;;;;;;;;;;;;;;;;;;;;;;;;;;;;;;;;;;;;;;;;;;;;;;;;;;;;;;;;;;;;;;;;;;;;;
node;316080571;47.193548;7.6221728;fuel;;;;;;;;;yes;;;;Merkaartor 0.13;;;;;;;;;;;;;;;;;;;;;;;;;;;;;;;;;;;;;;;;;;;;;;;;;;;;;;;;;;;;Knowledge;;;;;;;;;;;;;;;;;;;;;;;;;;;;;;;;;;;;;;;;;;;;;;;;;;;;;;;;;;;;;;;;;;;;;;;;;;;;;;;;;;;;;;;;;;;;;;;;;;;;;;;;;;;;;;;;;;;;;;;;;;;
node;316878199;47.5207131;8.2426395;fuel;;;;;;;;;;;;;;;;;;;;;;;;;;;;;;;;;;;;;;;;;;;;;;;;;;;;;;;;;;;;;;;;;;;;;;;;;;;;;;;;;;;;;;;;;;;;;;;;;;;;;;;;;;;;;;;;;;;;;;;;;;;;;;;;;;;;;;;;;;;;;;;;;;;;;;;;;;;;;;;;;;;;;;;;;;;;;;;;;;;;;;;;;;;;;;;;;;;;
node;317022081;47.5980137;9.0311262;fuel;Agrola;yes;Agrola;yes;;;;;;yes;;;;;;;;;;;;;;;;;;;;;no;;;;;;;;;;;;;;;;;;;;;;;;;;;;;;;;;;;;;;;;;;;;;;;;;;;;;;;;;;;;;;;;;;;;;;;;no;;;;;;;;;;;;;;;;;;;;;;;;;;;;;;;;;;;;;;;;;;;;;;;;;;;;;;;;;;;;;;;;;;;;;;;;;;;;;;;;;;;;;;;;;;;;;
node;317038642;47.1433014;7.3733308;fuel;Ruedi Rüssel;yes;Juragarage-Peter;;;Juragarage-Peter;;;;yes;yes;;;Büren an der Aare;;;;;;;;;;;;;;no;no;;;;;;;;;;;;;;;;;;;;;;no;;;;;;;;;;;;;;;;;;;;;;survey;;;;;;;;;;;;;;;;;;;;;;;;;;;;;;;;;;;;;;;;;;;;;;;;;;;;;;;;;;;;;;;;;;;;;;;;;;;;;;;;;;;;;;;;;;;;;;;;;;;;;;;;;;;;;;;;;;;;;;;;;;;
node;317045478;47.4712239;9.0585959;fuel;Avia;;;;Q300147;Avia;;de:Avia International;;;;;;;;;;;;;;;;;;;;;;;;;;;;;;;;;;;;;;;;;;;;;;;;;;;;;;;;;;;;;;;;;;;;;;;;;;;;;;;;;;;;;;;;;;;;;;;;;;;;;;;;;;;;;;;;;;;;;;;;;;;;;;;;;;;;;;;;;;;;;;;;;;;;;;;;;;;;;;;;;;;;;;;;;;;;;;;;;;;;;;;;;;;;
node;317828998;46.1738259;6.1283334;fuel;BP;;BP;;Q152057;BP;;en:BP;yes;;;;;;;;;;;;;;;;;;;;;;;;;;;;;;;;;;;;;;;;;;;;;;;;;;;;;;;;;;;;;;;;;;;;;;;;;;;;;;;;;;;;;;;;;;;;;;;;;;;;;;;;;;;;;;;;;;;;;;;;;;;;;;;;;;;;;;;;;;;;;;;;;;;;;;;;;;;;;;;;;;;;;;;;;;;;;;;;;;;;;;;;;;;
node;317829000;46.1689827;6.1408285;fuel;;;;;;;;;;;;;;Vessy;73;;Route de Drize;;;;;;;;;;;;;;;;;;;;;;;;;;;;;;;;;;;;;;;;;;;;;;;;;;;;;;;;;;;;;;;;;;;;;;;;;;;;;;;;;;;;;;;;;;;;;;;;;;;;;;;;;;;;;;;;;;;;;;;;;;;;;;;;;;;;;;;;;;;;;;;;;;;;;;;;;;;;;;;;;;;;;;;;;;;;;;;;;;;
node;317829065;46.1931561;6.1526381;fuel;Shell;yes;;;;;;;;yes;yes;;;Genève;17;;Rue Michel-Servet;;;;;yes;;;;;;;;;;;;;;;;;;;;;;;;;;;;;;;;;;;;;;;;;;;;;;;;;;;;;;;;;;;;;;;;;;;;;;;;;;;;;;;;;;;;;;;;;;;;;;;;;;;;;;;;;;;;;;;;;;;;;;;;;;;;;;;;;;;;;;;;;;;;;;;;;;;;;;;;;;;;;;;;;;;;;;;;;;;;;;
node;318306689;46.8773686;7.5419439;fuel;BP;yes;BP;limited;Q152057;;;en:BP;;;;;;;;;;;;;;;;;;;;;;;;;;;;;;;;;;;;;;;;;;;;;;;;;;;;;;;;;;;;;;;;;;;;;;;;;;;;;;;;;;;;;;;;;;;;;;;;;;;;;;;;;;;;;;;;;;;;;;;;;;;;;;;;;;;;;;;;;;;;;;;;;;;;;;;;;;;;;;;;;;;;;;;;;;;;;;;;;;;;;;;;;;;;
node;318410355;47.419653;8.556201;fuel;Shell;yes;Migrol;;Q154950;Migrol Service Thurgauerstrasse;;de:Royal Dutch Shell;yes;yes;;;;Zürich;100;8052;Thurgauerstrasse;Zürich Thurgauerstrasse;;;;;https://www.migrol.ch/de/;;yes;;Migrol Thurgauerstrasse;;;;;CH;yes;yes;yes;yes;yes;;;;;;;;;;;;;;;;;;;;;;;;;;;;;;;;;;;;;;;;;;;;;;;;;;;;;;;;;;;;;;;;;;;;;;;;;;;;;;;;;;;;;;;;;;;;;;;;;;;;;;;;;;;;;;;;;;;;;;;;;;;;;;;;;;;;;;;;;;;;;;;;;;;;;;;;;;;;;;;
node;318647877;47.043473;7.2734827;fuel;;;BP;;;;;;;;;;;;;;;;;;;;;;;;;;;;;;;;;;;;;;;;;;;;;;;;;;;;;;;;;;;;;;;;;;;;;;;;;;;;;;;;;;;;;;;;;;;;;;;;;;;;;;;;;;;;;;;;;;;;;;;;;;;;;;;;;;;;;;;;;;;;;;;;;;;;;;;;;;;;;;;;;;;;;;;;;;;;;;;;;;;;;;;;;;;;;;;;;
node;319114593;46.3152191;6.1919134;fuel;BP;;BP;;Q152057;BP;;en:BP;;;;;;;;;;;;;;;;;;;;;;;;;;;;;;;;;;;;;;;;;;;;;;;;;;;;;;;;;;;;;;;;;;;;;;;;;;;;;;;;;;;;;;;;;;;;;;;;;;;;;;;;;;;;;;;;;;;;;;;;;;;;;;;;;;;;;;;;;;;;;;;;;;;;;;;;;;;;;;;;;;;;;;;;;;;;;;;;;;;;;;;;;;;;
node;319463995;47.4206438;9.36708;fuel;Socar;yes;;;Q1622293;socar;24/7;;yes;yes;yes;2022-08-21;;;;;;;;;;;;;;;;;;;;;;;;;;3.5;;;;;;;;;;;;;;;;;;;;;;;;;;;;;;;;;;;;;;;;;;;;;;;;;;;;;;;;;;;;;;;;;;;;;;;;;;;;;;;;;;;;;;;;;;;;;;;;;;;;;;;;;;;;;;;;;;;;;;;;;;;;;;;;;;;;;;;;;;;;;;;;;;;;;;;;;;;;;;
node;319504511;46.4897328;6.3989245;fuel;;;Tamoil;;;Tamoil;;;;;;;;;;;;;;;;;;;;;;;;;;;;;;;;;;;;;;;;;;;;;;;;;;;;;;;;;;;;;;;;;;;;;;;;;;;;;;;;;;;;;;;;;;;;;;;;;;;;;;;;;;;;;;;;;;;;;;;;;;;;;;;;;;;;;;;;;;;;;;;;;;;;;;;;;;;;;;;;;;;;;;;;;;;;;;;;;;;;;;;;;;;;;;
node;320040835;47.4932576;8.8987116;fuel;Coop;;Coop Mineraloel;yes;;Coop Tankstelle;"Mo-Sa 06:00-22:00; Su 06:00-20:00";;yes;;;2024-09-30;;;;;;Aadorf;;;;;;;;;Coop Tankstelle Aadorf;;;;;;;;;;;;;;;;;;;;;;;;;;;;;;;;;;;;;;;;;;;;;;;;;;;;;;;;;;;;;;;;;;;;;;;;;;;;;;;;;;;;;;;;;;;;;;;;;;;;;;;;;;;;;;;;;;;;;;;;;;;;;;;;;;;;;;;;;;;;;;;;;;;;;;;;;;;;;;;;;;;;;;;;;
